,ciudad,latitude,longitude,etiqueta,entidad federativa / municipio,presentados 1,canalizados 1,subtotal 1,presentados 2,canalizados 2,subtotal 2,presentados 3,canalizados 3,subtotal 3,presentados 4,canalizados 4,subtotal 4,presentados 5,canalizados 5,subtotal 5,presentados 6,canalizados 6,subtotal 6,presentados 7,canalizados 7,subtotal 7,presentados 8,canalizados 8,subtotal 8,presentados 9,canalizados 9,subtotal 9,presentados 10,canalizados 10,subtotal 10,presentados 11,canalizados 11,subtotal 11,presentados 12,canalizados 12,subtotal 12,presentados total,canalizados total,total
268,"Santa Ana, Sonora",30.5410922,-111.1184881,municipio,"Huimanguillo, Tab.",1159,490,1649,1004,747,1751,1230,782,2012,1278,980,2258,2852,1053,3905,3944,325,4269,6889,443,7332,11380,755,12135,11866,754,12620,12689,869,13558,13224,669,13893,10942,360,11302,78457,8227,86684
265,"Nogales, Sonora",31.3285057,-110.9450472,municipio,"Centro, Tab.",636,42,678,274,101,375,738,152,890,131,38,169,1983,172,2155,4915,188,5103,7420,317,7737,8202,657,8859,9187,2076,11263,5661,1677,7338,11628,501,12129,17357,107,17464,68132,6028,74160
327,"Yauhquemehcan, Tlaxcala",19.4057444,-98.1824244,municipio,"Acayucan, Ver.",1232,28,1260,1180,43,1223,2031,0,2031,1249,36,1285,3495,61,3556,3094,796,3890,3524,540,4064,4949,43,4992,5182,42,5224,4222,48,4270,2817,42,2859,1784,8,1792,34759,1687,36446
274,"Cunduacán, Tabasco",18.066059,-93.173675,municipio,"Tenosique, Tab.",231,169,400,331,280,611,698,730,1428,296,331,627,1406,246,1652,3252,111,3363,2853,97,2950,6415,300,6715,4554,385,4939,4542,926,5468,5567,944,6511,4595,361,4956,34740,4880,39620
50,"Tapachula, Chiapas",14.9042905,-92.2609265,municipio,"Tapachula, Chis.",1606,4559,6165,1877,3819,5696,2602,2670,5272,995,312,1307,3396,2562,5958,5603,4222,9825,6106,4333,10439,54,4857,4911,6014,3379,9393,2305,2288,4593,1393,2157,3550,2540,1016,3556,34491,36174,70665
270,"Cárdenas, Tabasco",17.990878,-93.3753314,municipio,"Macuspana, Tab.",164,41,205,174,46,220,261,84,345,206,116,322,705,128,833,2070,61,2131,3284,72,3356,4794,102,4896,4539,56,4595,3259,379,3638,4382,150,4532,6566,100,6666,30404,1335,31739
263,"Imuris, Sonora",30.7874899,-110.8463861,municipio,"Cárdenas, Tab.",104,21,125,99,47,146,132,42,174,87,26,113,535,108,643,1367,6,1373,1759,5,1764,3418,3,3421,2793,3,2796,3374,10,3384,3681,198,3879,5316,16,5332,22665,485,23150
69,"Allende, Coahuila",28.3420816,-100.8517302,municipio,"Piedras Negras, Coah.",2974,623,3597,903,444,1347,1446,324,1770,1514,177,1691,772,440,1212,872,658,1530,817,579,1396,681,538,1219,929,184,1113,1056,205,1261,943,545,1488,2914,992,3906,15821,5709,21530
53,"Tuxtla Chico, Chiapas",14.8768619,-92.19675245,municipio,"Tuxtla Chico, Chis.",84,30,114,0,0,0,571,55,626,144,0,144,1755,126,1881,1849,2,1851,3165,341,3506,9,916,925,3931,1277,5208,1984,525,2509,1254,983,2237,561,141,702,15307,4396,19703
10,"La Paz, Baja California Sur",24.1619948,-110.3158532,municipio,"Tijuana, BC",402,577,979,501,997,1498,927,1860,2787,694,1527,2221,717,958,1675,833,582,1415,1287,731,2018,1328,1509,2837,1823,1848,3671,1721,1288,3009,1439,996,2435,1573,1287,2860,13245,14160,27405
36,"Jiquipilas, Chiapas",16.57497565,-93.60565428,municipio,"Huixtla, Chis.",801,544,1345,561,876,1437,896,401,1297,226,59,285,750,433,1183,1519,863,2382,1768,1299,3067,4,1468,1472,1106,1426,2532,1908,2001,3909,1962,1489,3451,1251,144,1395,12752,11003,23755
49,"Suchiate, Chiapas",14.6321744,-92.24196336,municipio,"Suchiate, Chis.",708,278,986,591,396,987,654,452,1106,275,106,381,927,1047,1974,1581,2007,3588,1888,2178,4066,16,3417,3433,1932,2340,4272,1097,1419,2516,876,1796,2672,1017,1205,2222,11562,16641,28203
24,"Catazajá, Chiapas",17.76826375,-92.03793125,municipio,"Arriaga, Chis.",285,104,389,429,287,716,737,283,1020,190,50,240,1251,419,1670,1375,918,2293,1475,1170,2645,1,1430,1431,1188,1108,2296,1570,970,2540,1752,1280,3032,522,947,1469,10775,8966,19741
273,"Comalcalco, Tabasco",18.2615076,-93.2231523,municipio,"Teapa, Tab.",105,3,108,82,4,86,49,16,65,62,11,73,397,75,472,851,11,862,879,11,890,1430,3,1433,986,2,988,1068,58,1126,1223,19,1242,2566,5,2571,9698,218,9916
35,"Huixtla, Chiapas",15.122125,-92.50399708,municipio,"Huehuetán, Chis.",843,369,1212,670,650,1320,954,278,1232,241,33,274,515,218,733,920,351,1271,686,406,1092,907,460,1367,895,223,1118,1174,937,2111,1305,1161,2466,211,286,497,9321,5372,14693
272,"Centro, Tabasco",18.0271588,-92.77479118,municipio,"Tacotalpa, Tab.",0,0,0,0,0,0,0,0,0,0,0,0,101,10,111,814,16,830,873,21,894,1677,8,1685,1463,0,1463,769,36,805,848,45,893,2365,5,2370,8910,141,9051
45,"Pijijiapan, Chiapas",15.6849991,-93.2080195,municipio,"Pijijiapan, Chis.",405,6,411,628,38,666,1043,180,1223,213,24,237,422,138,560,589,246,835,450,271,721,263,229,492,384,384,768,1911,292,2203,1724,652,2376,663,141,804,8695,2601,11296
261,"Hermosillo, Sonora",29.0948207,-110.9692202,municipio,"Santa Ana, Son.",0,0,0,0,0,0,0,0,0,0,0,0,0,0,0,1545,393,1938,743,440,1183,2137,1125,3262,1788,900,2688,615,481,1096,840,304,1144,916,130,1046,8584,3773,12357
254,"Mazatlán, Sinaloa",23.2035785,-106.4208391,municipio,"Hermosillo, Son.",1384,363,1747,1351,365,1716,1653,49,1702,210,16,226,255,40,295,148,17,165,176,24,200,55,20,75,922,41,963,386,26,412,496,240,736,899,687,1586,7935,1888,9823
269,"Balancán, Tabasco",17.79751665,-91.34585889,municipio,"Jalapa, Tab.",9,0,9,0,0,0,0,0,0,0,0,0,0,0,0,190,0,190,570,2,572,1182,5,1187,970,1,971,1042,2,1044,1492,28,1520,2071,0,2071,7526,38,7564
61,"Janos, Chihuahua",30.8893267,-108.1930484,municipio,"Juárez, Chih.",1912,731,2643,1307,331,1638,328,1,329,0,0,0,256,0,256,937,0,937,399,0,399,355,1,356,382,1,383,115,0,115,541,0,541,367,0,367,6899,1065,7964
54,"Tuxtla Gutiérrez, Chiapas",16.753801,-93.115959,municipio,"Tuxtla Gutiérrez, Chis.",386,110,496,250,108,358,396,97,493,120,33,153,245,87,332,50,29,79,98,148,246,26,67,93,83,1,84,2013,1028,3041,2517,1209,3726,698,467,1165,6882,3384,10266
65,"Gustavo A. Madero, Ciudad de México",19.4831686,-99.1137888,municipio,"Iztapalapa, CDMX",268,3,271,453,8,461,492,6,498,384,3,387,255,7,262,530,12,542,636,3,639,583,9,592,607,2,609,708,0,708,605,81,686,436,0,436,5957,134,6091
267,"San Luis Río Colorado, Sonora",32.4517957,-114.7652542,municipio,"Emiliano Zapata, Tab.",59,65,124,80,32,112,188,143,331,129,100,229,275,110,385,324,44,368,394,22,416,303,11,314,548,3,551,898,54,952,1238,41,1279,1452,42,1494,5888,667,6555
44,"Pantepec, Chiapas",17.1944142,-93.05246608,municipio,"Palenque, Chis.",367,159,526,436,290,726,435,264,699,382,330,712,386,176,562,435,232,667,327,215,542,177,175,352,180,188,368,1023,534,1557,378,376,754,113,152,265,4639,3091,7730
23,"Berriozábal, Chiapas",16.87168945,-93.33707618,municipio,"Acapetahua, Chis.",810,187,997,1306,277,1583,437,95,532,17,11,28,327,135,462,382,261,643,555,149,704,3,106,109,197,167,364,158,247,405,223,207,430,32,31,63,4447,1873,6320
243,"Cozumel, Quintana Roo",20.4320599,-86.92069058,municipio,"San Luis Potosí, SLP",242,0,242,308,0,308,377,0,377,216,0,216,11,0,11,0,126,126,61,0,61,293,0,293,467,0,467,367,0,367,441,0,441,1153,5,1158,3936,131,4067
258,"Cajeme, Sonora",27.71198065,-109.9022075,municipio,"Nogales, Son.",1,0,1,0,0,0,0,122,122,2317,263,2580,656,46,702,14,0,14,78,6,84,55,4,59,57,4,61,89,0,89,108,0,108,264,0,264,3639,445,4084
290,"Jaumave, Tamaulipas",23.40496,-99.3806698,municipio,"Reynosa, Tamps.",525,1,526,539,1,540,1455,6,1461,372,0,372,302,0,302,38,0,38,88,57,145,45,258,303,62,2,64,0,819,819,8,654,662,45,1062,1107,3479,2860,6339
5,"Mexicali, Baja California",32.6405247,-115.474899,municipio,"Mexicali, BC",230,0,230,329,29,358,659,153,812,443,112,555,272,104,376,212,80,292,116,144,260,265,305,570,230,474,704,157,329,486,119,262,381,247,396,643,3279,2388,5667
90,"Huehuetoca, México",19.833375,-99.2044638,municipio,"Tepotzotlán, Méx.",341,146,487,494,128,622,410,24,434,140,39,179,109,25,134,151,18,169,313,34,347,99,52,151,68,27,95,650,745,1395,453,468,921,0,0,0,3228,1706,4934
159,"Cadereyta Jiménez, Nuevo León",25.517337,-99.87117352,municipio,"Galeana, NL",133,64,197,144,147,291,308,289,597,183,54,237,51,4,55,46,44,90,173,371,544,255,394,649,259,229,488,537,359,896,701,198,899,275,176,451,3065,2329,5394
231,"Trinidad Zaachila, Oaxaca",16.921389,-96.765,municipio,"Puebla, Pue.",411,143,554,586,381,967,954,480,1434,494,203,697,172,84,256,7,4,11,1,11,12,69,507,576,45,59,104,29,71,100,149,137,286,38,34,72,2955,2114,5069
28,"Cintalapa de Figueroa, Chiapas",16.6905402,-93.7257625,municipio,"Chiapa de Corzo, Chis.",417,63,480,261,30,291,284,33,317,107,7,114,70,39,109,67,14,81,15,9,24,0,106,106,43,0,43,618,363,981,503,297,800,102,130,232,2487,1091,3578
152,"Tepoztlán, Morelos",18.9914959,-99.10254533,municipio,"Apodaca, NL",151,61,212,134,54,188,543,301,844,92,18,110,120,10,130,102,26,128,125,181,306,104,262,366,159,214,373,189,184,373,476,318,794,234,197,431,2429,1826,4255
185,"Chahuites, Oaxaca",16.2885299,-94.1942777,municipio,"Juchitán de Zaragoza, Oax.",249,108,357,434,136,570,602,187,789,490,154,644,74,36,110,18,53,71,0,0,0,0,0,0,9,0,9,15,2,17,48,6,54,4,0,4,1943,682,2625
59,"Yajalón, Chiapas",17.1768885,-92.35196099,municipio,"Chihuahua, Chih.",35,6,41,24,4,28,52,14,66,13,3,16,3,0,3,146,3,149,477,12,489,714,26,740,79,6,85,12,5,17,139,81,220,141,45,186,1835,205,2040
322,"Tlaxcala, Tlaxcala",19.416667,-98.166667,municipio,"Xaloztoc, Tlax.",209,17,226,0,0,0,1,0,1,1,0,1,146,17,163,220,53,273,414,99,513,3,0,3,261,59,320,211,81,292,159,98,257,180,72,252,1805,496,2301
236,"Villa Tejúpam de la Unión, Oaxaca",17.6625,-97.470833,municipio,"Benito Juárez, Q. Roo",54,7,61,97,16,113,181,11,192,183,25,208,74,1,75,97,3,100,347,49,396,252,11,263,130,2,132,83,1,84,173,23,196,89,0,89,1760,149,1909
18,"Palizada, Campeche",18.2549484,-92.0907089,municipio,"Escárcega, Camp.",4,1,5,0,0,0,12,0,12,62,15,77,48,12,60,32,23,55,79,67,146,163,93,256,342,147,489,319,177,496,312,135,447,315,166,481,1688,836,2524
378,"Veracruz, Veracruz",19.333333,-96.666667,municipio,"Veracruz, Ver.",169,6,175,414,0,414,967,0,967,34,20,54,0,3,3,0,0,0,0,1,1,0,104,104,1,231,232,0,71,71,0,33,33,0,9,9,1585,478,2063
67,"Venustiano Carranza, Ciudad de México",19.4192787,-99.1135639,municipio,"Acuña, Coah.",154,1,155,434,5,439,343,11,354,400,37,437,160,70,230,19,1,20,12,3,15,19,3,22,0,0,0,0,0,0,0,0,0,0,0,0,1541,131,1672
55,"Unión Juárez, Chiapas",15.07074175,-92.09254281,municipio,"Unión Juárez, Chis.",427,108,535,442,226,668,188,152,340,54,30,84,12,6,18,0,12,12,0,17,17,0,14,14,0,0,0,37,260,297,4,171,175,366,149,515,1530,1145,2675
262,"Huatabampo, Sonora",26.8248431,-109.6420085,municipio,"Balancán, Tab.",4,5,9,4,0,4,46,7,53,5,0,5,0,0,0,22,0,22,0,0,0,63,0,63,16,0,16,0,0,0,347,1,348,953,4,957,1460,17,1477
303,"Apizaco, Tlaxcala",19.415556,-98.14,municipio,"Huamantla, Tlax.",0,0,0,348,55,403,362,51,413,409,85,494,0,0,0,7,8,15,9,1,10,269,57,326,10,7,17,2,0,2,7,0,7,0,0,0,1423,264,1687
169,"Guadalupe, Nuevo León",25.6751114,-100.2151753,municipio,"Mina, NL",108,49,157,85,80,165,90,96,186,18,8,26,16,0,16,81,66,147,167,190,357,97,145,242,78,104,182,93,39,132,92,92,184,393,156,549,1318,1025,2343
129,"Tepeapulco, Hidalgo",19.7875962,-98.5522855,municipio,"Guadalajara, Jal.",214,0,214,327,0,327,257,0,257,2,0,2,1,0,1,0,0,0,123,0,123,381,0,381,2,0,2,0,0,0,5,0,5,1,0,1,1313,0,1313
26,"Chiapa de Corzo, Chiapas",16.7075202,-93.0115045,municipio,"Catazajá, Chis.",57,16,73,103,43,146,184,64,248,183,66,249,129,91,220,65,33,98,44,33,77,59,16,75,21,40,61,184,170,354,229,140,369,28,54,82,1286,766,2052
305,"Calpulalpan, Tlaxcala",19.587778,-98.569167,municipio,"Ixtacuixtla de Mariano Matamoros, Tlax.",141,100,241,303,345,648,170,136,306,100,94,194,20,22,42,52,25,77,38,111,149,42,105,147,31,41,72,85,97,182,176,191,367,58,61,119,1216,1328,2544
56,"Villa Comaltitlán, Chiapas",15.1709732,-92.61288629,municipio,"Villa Comaltitlán, Chis.",0,0,0,0,0,0,1,1,2,0,6,6,66,45,111,74,23,97,60,71,131,3,181,184,365,141,506,368,38,406,135,94,229,89,62,151,1161,662,1823
79,"Villa de Álvarez, Colima",19.2651417,-103.736013,municipio,"Apaxco, Méx.",0,0,0,0,0,0,0,0,0,0,0,0,0,0,0,0,0,0,0,0,0,0,0,0,280,242,522,693,819,1512,154,247,401,23,16,39,1150,1324,2474
255,"Agua Prieta, Sonora",31.3330151,-109.5594265,municipio,"Huatabampo, Son.",0,0,0,0,0,0,0,0,0,0,0,0,0,0,0,0,0,0,0,0,0,0,0,0,0,0,0,0,0,0,0,0,0,1041,1,1042,1041,1,1042
252,"Culiacán, Sinaloa",24.7978965,-107.393395,municipio,"General Plutarco Elías Calles, Son.",0,0,0,0,0,0,0,17,17,45,1,46,21,14,35,38,10,48,152,104,256,2,0,2,0,0,0,0,0,0,35,15,50,670,308,978,963,469,1432
161,"Ciénega de Flores, Nuevo León",25.956169,-100.1662028,municipio,"General Bravo, NL",37,46,83,156,210,366,241,230,471,35,14,49,60,74,134,27,14,41,43,35,78,106,135,241,66,114,180,79,232,311,31,71,102,0,0,0,881,1175,2056
233,"Villa de Tamazulápam del Progreso, Oaxaca",17.6748203,-97.5720083,municipio,"Querétaro, Qro.",0,0,0,32,0,32,29,0,29,1,0,1,0,0,0,0,0,0,90,0,90,234,0,234,90,0,90,0,0,0,354,0,354,40,1,41,870,1,871
359,"Orizaba, Veracruz",18.8497366,-97.1060062,municipio,"Orizaba, Ver.",57,8,65,334,8,342,0,0,0,372,0,372,0,28,28,0,17,17,37,69,106,0,0,0,22,0,22,43,65,108,0,3,3,0,37,37,865,235,1100
382,"Mérida, Yucatán",20.9670759,-89.6237402,municipio,"Mérida, Yuc.",37,12,49,35,0,35,127,1,128,336,0,336,4,0,4,10,0,10,23,0,23,38,15,53,47,21,68,80,0,80,69,37,106,29,9,38,835,95,930
257,"Caborca, Sonora",30.7166014,-112.1562598,municipio,"Navojoa, Son.",0,0,0,0,0,0,0,0,0,0,0,0,0,0,0,0,0,0,0,0,0,0,0,0,0,0,0,0,0,0,637,1,638,196,0,196,833,1,834
279,"Paraíso, Tabasco",18.3987331,-93.2125326,municipio,"Cruillas, Tamps.",31,23,54,53,0,53,60,0,60,5,0,5,0,0,0,21,2,23,380,30,410,0,0,0,144,23,167,109,64,173,0,72,72,0,0,0,803,214,1017
107,"Irapuato, Guanajuato",20.6758761,-101.3521052,municipio,"Azoyú, Gro.",0,0,0,74,29,103,278,62,340,146,20,166,0,0,0,0,0,0,42,8,50,114,23,137,99,68,167,42,18,60,0,0,0,0,0,0,795,228,1023
388,"Zacatecas, Zacatecas",23.0823582,-103.2085698,municipio,"Zacatecas, Zac.",216,45,261,66,9,75,286,108,394,2,0,2,3,2,5,7,0,7,0,6,6,24,9,33,160,0,160,21,1,22,6,11,17,0,0,0,791,191,982
253,"Guasave, Sinaloa",25.5738,-108.4674697,municipio,"Guaymas, Son.",0,0,0,0,0,0,0,4,4,0,0,0,0,0,0,0,0,0,0,63,63,0,0,0,0,0,0,0,0,0,96,0,96,693,7,700,789,74,863
68,"Acuña, Coahuila",29.3248796,-100.9322287,municipio,"Monclova, Coah.",147,30,177,62,8,70,183,14,197,20,0,20,6,6,12,13,0,13,0,0,0,0,0,0,91,53,144,1,0,1,34,71,105,218,247,465,775,429,1204
43,"Palenque, Chiapas",17.509188,-91.980922,municipio,"Ocozocoautla de Espinosa, Chis.",184,55,239,82,38,120,64,33,97,47,19,66,67,15,82,44,44,88,34,58,92,0,48,48,2,0,2,21,16,37,89,67,156,119,81,200,753,474,1227
76,"Torreón, Coahuila",25.542698,-103.410512,municipio,"Gómez Palacio, Dgo.",173,42,215,127,37,164,147,14,161,29,18,47,4,0,4,0,10,10,12,3,15,50,1,51,17,0,17,52,0,52,54,0,54,59,0,59,724,125,849
123,"Emiliano Zapata, Hidalgo",19.6546865,-98.544552,municipio,"Tepeji del Río de Ocampo, Hgo.",102,0,102,58,46,104,48,30,78,72,23,95,0,0,0,0,0,0,343,0,343,52,8,60,6,0,6,0,0,0,0,0,0,0,0,0,681,107,788
93,"Nezahualcóyotl, México",19.4079028,-99.0181547,municipio,"Toluca, Méx.",115,0,115,81,0,81,0,0,0,2,0,2,29,0,29,24,0,24,108,7,115,51,0,51,80,2,82,101,20,121,71,49,120,14,0,14,676,78,754
210,"San Pedro Ixtlahuaca, Oaxaca",17.063056,-96.818056,municipio,"Santa Cruz Xoxocotlán, Oax.",1,0,1,14,0,14,3,0,3,6,0,6,0,0,0,103,0,103,33,0,33,145,1,146,98,70,168,77,0,77,148,20,168,31,0,31,659,91,750
203,"San Jacinto Amilpas, Oaxaca",17.1011376,-96.7606784,municipio,"San Pablo Huitzo, Oax.",81,0,81,39,10,49,4,0,4,81,25,106,3,0,3,23,3,26,65,0,65,3,1,4,87,10,97,114,43,157,103,11,114,22,0,22,625,103,728
188,"El Espinal, Oaxaca",16.4609135,-95.0581833,municipio,"Oaxaca de Juárez, Oax.",17,2,19,14,3,17,16,11,27,23,25,48,6,0,6,93,28,121,39,23,62,51,278,329,11,15,26,6,147,153,188,102,290,102,17,119,566,651,1217
162,"Doctor Arroyo, Nuevo León",23.80420455,-100.2256635,municipio,"General Escobedo, NL",9,0,9,0,0,0,2,4,6,0,0,0,20,2,22,1,0,1,2,0,2,0,0,0,252,161,413,85,147,232,28,71,99,141,279,420,540,664,1204
9,"Tijuana, Baja California",32.5317397,-117.019529,municipio,"Tecate, BC",2,0,2,0,0,0,43,30,73,2,22,24,109,55,164,38,45,83,40,19,59,29,0,29,0,3,3,79,26,105,70,14,84,90,22,112,502,236,738
47,"San Cristóbal de las Casas, Chiapas",16.6835469,-92.61551842,municipio,"San Cristóbal de las Casas, Chis.",48,23,71,180,41,221,135,16,151,50,16,66,0,0,0,0,2,2,82,106,188,0,1,1,0,0,0,0,0,0,0,0,0,0,0,0,495,205,700
70,"Francisco I. Madero, Coahuila",26.23755265,-103.0996556,municipio,"Saltillo, Coah.",154,21,175,97,85,182,75,21,96,19,16,35,10,4,14,3,25,28,2,0,2,1,16,17,1,5,6,0,0,0,18,29,47,112,211,323,492,433,925
75,"Saltillo, Coahuila",25.4230425,-100.9927509,municipio,"Durango, Dgo.",18,7,25,0,9,9,0,4,4,36,21,57,24,11,35,23,10,33,56,14,70,181,0,181,33,4,37,103,3,106,17,0,17,0,0,0,491,83,574
34,"Huehuetán, Chiapas",15.0217164,-92.42866979,municipio,"Frontera Hidalgo, Chis.",36,64,100,62,24,86,13,100,113,4,0,4,9,0,9,0,40,40,15,47,62,2,5,7,14,24,38,31,218,249,11,240,251,285,112,397,482,874,1356
71,"Guerrero, Coahuila",28.3093253,-100.3805564,municipio,"Torreón, Coah.",5,65,70,55,49,104,278,139,417,59,9,68,37,16,53,4,42,46,4,0,4,0,0,0,0,0,0,0,0,0,9,9,18,19,25,44,470,354,824
33,"Frontera Hidalgo, Chiapas",14.7531678,-92.21613683,municipio,"Frontera Comalapa, Chis.",105,104,209,81,42,123,168,63,231,54,20,74,12,1,13,0,26,26,0,0,0,0,56,56,0,15,15,16,30,46,0,0,0,0,0,0,436,357,793
37,"La Trinitaria, Chiapas",16.1206164,-92.0542431,municipio,"Jiquipilas, Chis.",0,0,0,0,0,0,0,0,0,0,0,0,0,0,0,0,0,0,0,0,0,0,0,0,0,0,0,177,121,298,200,126,326,51,68,119,428,315,743
284,"Altamira, Tamaulipas",22.3921625,-97.9362975,municipio,"Jaumave, Tamps.",31,25,56,24,0,24,59,0,59,9,0,9,0,0,0,4,4,8,277,33,310,0,0,0,2,0,2,9,0,9,0,19,19,6,36,42,421,117,538
292,"Matamoros, Tamaulipas",25.8810158,-97.5064866,municipio,"San Fernando, Tamps.",6,18,24,36,13,49,63,46,109,0,0,0,0,0,0,3,0,3,167,30,197,0,0,0,25,7,32,85,100,185,0,38,38,24,42,66,409,294,703
251,"Angostura, Sinaloa",25.3657471,-108.16152,municipio,"Cajeme, Son.",0,0,0,0,0,0,0,75,75,36,9,45,109,11,120,138,71,209,7,0,7,0,0,0,0,0,0,0,6,6,42,229,271,52,254,306,384,655,1039
276,"Huimanguillo, Tabasco",17.7620967,-93.66344081,municipio,"Altamira, Tamps.",13,41,54,27,16,43,33,15,48,5,3,8,9,8,17,1,0,1,57,15,72,0,0,0,144,315,459,79,38,117,0,28,28,15,11,26,383,490,873
286,"Cruillas, Tamaulipas",24.7554618,-98.5369904,municipio,"Matamoros, Tamps.",76,0,76,153,0,153,130,3,133,0,4,4,0,0,0,0,3,3,0,0,0,0,1,1,1,3,4,0,0,0,0,0,0,0,0,0,360,14,374
11,"Los Cabos, Baja California Sur",23.27184805,-109.6897684,municipio,"La Paz, BCS",6,0,6,6,0,6,8,0,8,15,0,15,19,0,19,8,0,8,16,0,16,38,0,38,43,0,43,44,0,44,76,0,76,67,0,67,346,0,346
266,"Puerto Peñasco, Sonora",31.3170867,-113.531819,municipio,"Comalcalco, Tab.",0,0,0,0,0,0,0,0,0,0,0,0,52,0,52,143,1,144,85,0,85,52,0,52,1,0,1,0,0,0,0,0,0,0,0,0,333,1,334
2,"Jesús María, Aguascalientes",21.9345555,-102.4684517,municipio,"Jesús María, Ags.",153,13,166,155,19,174,1,0,1,0,0,0,0,0,0,0,0,0,6,4,10,2,2,4,5,3,8,3,26,29,2,5,7,0,0,0,327,72,399
171,"Juárez, Nuevo León",25.6467011,-100.0907766,municipio,"Monterrey, NL",6,4,10,1,8,9,7,5,12,25,7,32,18,0,18,29,7,36,2,0,2,26,46,72,57,9,66,9,11,20,18,1,19,121,29,150,319,127,446
57,"Villa Corzo, Chiapas",16.0631888,-93.26500253,municipio,"Villa Corzo, Chis.",237,24,261,8,0,8,3,1,4,5,0,5,27,6,33,19,21,40,4,19,23,0,6,6,0,0,0,0,0,0,0,0,0,0,0,0,303,77,380
297,"San Fernando, Tamaulipas",24.8466769,-98.1473493,municipio,"Apetatitlán de Antonio Carvajal, Tlax.",214,1,215,7,0,7,10,2,12,5,0,5,4,1,5,1,0,1,15,5,20,2,2,4,7,0,7,7,0,7,26,8,34,3,1,4,301,20,321
224,"Santa María Tonameca, Oaxaca",15.745833,-96.547222,municipio,"Tlacolula de Matamoros, Oax.",0,0,0,1,0,1,0,0,0,0,0,0,0,2,2,16,0,16,23,0,23,0,0,0,85,8,93,93,6,99,59,22,81,20,16,36,297,54,351
239,"Querétaro, Querétaro",20.5927744,-100.3902245,municipio,"Othón P. Blanco, Q. Roo",7,0,7,21,4,25,12,0,12,5,0,5,1,0,1,16,1,17,71,12,83,36,11,47,33,13,46,43,2,45,37,13,50,9,0,9,291,56,347
234,"Villa de Tututepec, Oaxaca",16.1303062,-97.6080871,municipio,"San Juan del Río, Qro.",66,3,69,0,0,0,0,0,0,155,0,155,4,3,7,0,0,0,0,1,1,1,256,257,0,396,396,63,353,416,0,2,2,0,0,0,289,1014,1303
365,"Pueblo Viejo, Veracruz",22.1638426,-97.89855507,municipio,"Pueblo Viejo, Ver.",13,26,39,33,31,64,89,78,167,40,19,59,8,3,11,4,1,5,46,13,59,0,0,0,49,31,80,0,0,0,0,0,0,0,0,0,282,202,484
248,"Cedral, San Luis Potosí",23.8205361,-100.7242892,municipio,"Mazatlán, Sin.",54,19,73,92,125,217,102,115,217,21,39,60,0,0,0,0,0,0,0,88,88,0,109,109,0,105,105,3,71,74,7,21,28,0,5,5,279,697,976
109,"Ocampo, Guanajuato",21.6042823,-101.4762393,municipio,"San Marcos, Gro.",94,19,113,169,30,199,0,0,0,0,0,0,0,0,0,0,0,0,5,4,9,8,29,37,0,7,7,0,0,0,0,14,14,0,0,0,276,103,379
29,"Comitán de Domínguez, Chiapas",16.2911698,-92.17532124,municipio,"Cintalapa de Figueroa, Chis.",55,52,107,13,7,20,24,17,41,8,1,9,1,0,1,3,0,3,2,26,28,0,10,10,1,3,4,50,52,102,42,48,90,57,48,105,256,264,520
40,"Motozintla, Chiapas",15.3050827,-92.34880362,municipio,"Mezcalapa, Chis.",0,0,0,55,5,60,29,23,52,12,3,15,8,5,13,12,3,15,10,12,22,0,38,38,13,0,13,46,30,76,39,27,66,32,37,69,256,183,439
15,"Carmen, Campeche",18.651739,-91.81492,municipio,"Campeche, Camp.",2,0,2,1,0,1,1,0,1,0,0,0,78,23,101,20,26,46,18,43,61,25,36,61,59,40,99,15,15,30,17,4,21,7,0,7,243,187,430
306,"Chiautempan, Tlaxcala",19.313889,-98.1925,municipio,"Ixtenco, Tlax.",200,50,250,0,0,0,0,0,0,0,0,0,0,0,0,0,0,0,0,0,0,0,0,0,0,0,0,0,0,0,7,4,11,0,0,0,207,54,261
337,"Carrillo Puerto, Veracruz",18.8215893,-96.5842839,municipio,"Coatzacoalcos, Ver.",0,6,6,32,21,53,108,0,108,26,50,76,19,24,43,0,11,11,0,1,1,0,0,0,13,0,13,0,0,0,0,5,5,0,0,0,198,118,316
16,"Champotón, Campeche",19.3439655,-90.7242742,municipio,"Carmen, Camp.",21,4,25,0,7,7,14,0,14,29,0,29,48,10,58,3,0,3,31,3,34,30,14,44,9,23,32,4,9,13,1,0,1,0,0,0,190,70,260
338,"Coatepec, Veracruz",19.4543134,-96.9596375,municipio,"Córdoba, Ver.",114,6,120,21,22,43,0,0,0,39,0,39,0,7,7,0,64,64,3,247,250,0,22,22,0,21,21,0,19,19,0,24,24,0,0,0,177,432,609
84,"Amecameca, México",19.1200254,-98.70653181,municipio,"Huehuetoca, Méx.",0,0,0,0,15,15,40,4,44,15,2,17,0,0,0,5,0,5,10,18,28,20,11,31,2,0,2,0,0,0,72,135,207,0,0,0,164,185,349
150,"Puente de Ixtla, Morelos",18.6171111,-99.3192092,municipio,"Tepic, Nay.",26,0,26,12,2,14,42,7,49,1,0,1,9,3,12,9,0,9,29,4,33,0,0,0,9,31,40,1,0,1,25,9,34,0,0,0,163,56,219
164,"Galeana, Nuevo León",24.758306,-100.3813513,municipio,"Guadalupe, NL",16,14,30,8,4,12,14,4,18,20,5,25,21,0,21,10,7,17,7,3,10,33,3,36,25,11,36,3,0,3,1,9,10,2,3,5,160,63,223
323,"Tlaxco, Tlaxcala",19.62058645,-98.1707601,municipio,"Xaltocan, Tlax.",1,8,9,0,0,0,0,0,0,0,0,0,0,0,0,0,0,0,0,0,0,0,0,0,156,136,292,0,0,0,0,0,0,0,0,0,157,144,301
83,"Acambay de Ruíz Castañeda, México",19.95904705,-99.84802086,municipio,"Ecatepec de Morelos, Méx.",0,0,0,0,0,0,123,10,133,1,0,1,0,0,0,1,0,1,0,0,0,20,21,41,0,0,0,0,0,0,9,0,9,0,0,0,154,31,185
140,"Apatzingán, Michoacán",19.0913792,-102.3537356,municipio,"Zinapécuaro, Mich.",0,0,0,0,14,14,0,0,0,7,0,7,0,0,0,7,0,7,0,0,0,5,5,10,5,0,5,59,2,61,18,2,20,41,11,52,142,34,176
81,"Gómez Palacio, Durango",25.5732473,-103.494779,municipio,"Chalco, Méx.",0,0,0,0,0,0,0,0,0,29,2,31,0,0,0,0,0,0,34,40,74,71,229,300,6,0,6,0,0,0,0,0,0,0,0,0,140,271,411
30,"Copainalá, Chiapas",17.0930214,-93.2102105,municipio,"Comitán de Domínguez, Chis.",35,12,47,41,6,47,37,9,46,21,6,27,0,0,0,0,1,1,1,0,1,0,0,0,2,2,4,2,1,3,0,2,2,0,0,0,139,39,178
13,"Calkiní, Campeche",20.3695121,-90.0510784,municipio,"Calakmul, Camp.",0,0,0,0,0,0,0,0,0,31,13,44,72,41,113,0,0,0,1,0,1,0,0,0,1,0,1,0,6,6,8,6,14,21,11,32,134,77,211
250,"Ahome, Sinaloa",25.9240491,-109.2058344,municipio,"Caborca, Son.",0,0,0,0,0,0,0,0,0,0,0,0,0,32,32,131,241,372,0,0,0,0,0,0,0,0,0,0,0,0,0,0,0,0,9,9,131,282,413
166,"General Bravo, Nuevo León",25.7932962,-99.1811424,municipio,"Juárez, NL",56,22,78,0,0,0,58,35,93,8,0,8,0,0,0,0,0,0,0,0,0,0,0,0,0,0,0,0,0,0,0,0,0,1,0,1,123,57,180
288,"González, Tamaulipas",22.79038735,-98.57631896,municipio,"Nuevo Laredo, Tamps.",13,9,22,13,0,13,38,9,47,57,2,59,1,0,1,0,0,0,0,0,0,0,0,0,0,0,0,0,0,0,1,0,1,0,0,0,123,20,143
207,"San Miguel Tequixtepec, Oaxaca",17.801944,-97.340556,municipio,"San Pedro Tapanatepec, Oax.",16,6,22,58,70,128,15,37,52,10,17,27,0,0,0,0,0,0,0,6,6,0,8,8,3,1,4,9,1,10,1,16,17,9,0,9,121,162,283
377,"Tuxpan, Veracruz",20.95647915,-97.40738177,municipio,"Tuxpan, Ver.",9,4,13,10,6,16,16,17,33,53,18,71,15,3,18,2,0,2,11,6,17,0,0,0,0,13,13,1,30,31,0,4,4,0,0,0,117,101,218
60,"Chihuahua, Chihuahua",28.5000001,-106.0000001,municipio,"Janos, Chih.",33,0,33,1,0,1,1,0,1,0,0,0,0,0,0,2,0,2,3,0,3,7,0,7,7,0,7,0,0,0,17,0,17,45,0,45,116,0,116
130,"Tepeji del Río de Ocampo, Hidalgo",19.89368265,-99.34871815,municipio,"Tlajomulco de Zúñiga, Jal.",0,0,0,0,0,0,0,0,0,103,0,103,0,0,0,0,0,0,0,0,0,10,0,10,0,0,0,0,0,0,0,0,0,0,0,0,113,0,113
215,"San Sebastián Tutla, Oaxaca",17.059722,-96.672222,municipio,"Santa María Huatulco, Oax.",27,0,27,34,46,80,8,0,8,0,0,0,26,10,36,0,0,0,12,0,12,0,0,0,0,0,0,0,0,0,0,0,0,0,0,0,107,56,163
17,"Escárcega, Campeche",18.606934,-90.7385823,municipio,"Champotón, Camp.",0,0,0,0,0,0,47,17,64,3,0,3,1,0,1,1,0,1,0,0,0,0,0,0,48,3,51,5,24,29,0,0,0,0,0,0,105,44,149
138,"Tlajomulco de Zúñiga, Jalisco",20.48187375,-103.4005097,municipio,"Morelia, Mich.",1,1,2,1,2,3,3,0,3,0,1,1,1,0,1,0,0,0,0,0,0,2,0,2,4,0,4,2,0,2,90,28,118,0,0,0,104,32,136
52,"Tonalá, Chiapas",16.0894476,-93.7546502,municipio,"Tonalá, Chis.",0,0,0,0,0,0,0,0,0,3,4,7,55,85,140,29,16,45,0,0,0,13,0,13,0,0,0,0,25,25,0,0,0,0,0,0,100,130,230
62,"Juárez, Chihuahua",31.7372575,-106.485655,municipio,"Ojinaga, Chih.",8,0,8,14,0,14,38,0,38,18,0,18,0,0,0,0,0,0,9,0,9,0,0,0,3,0,3,0,0,0,0,4,4,7,0,7,97,4,101
240,"San Juan del Río, Querétaro",20.3867547,-99.9931982,municipio,"Solidaridad, Q. Roo",0,0,0,12,2,14,6,0,6,6,2,8,1,3,4,0,3,3,46,14,60,0,19,19,4,9,13,5,15,20,8,1,9,0,10,10,88,78,166
277,"Jalapa, Tabasco",17.721716,-92.812012,municipio,"Antiguo Morelos, Tamps.",18,17,35,9,0,9,18,5,23,8,1,9,0,0,0,0,0,0,14,5,19,0,0,0,15,12,27,0,0,0,0,0,0,0,0,0,82,40,122
151,"Temixco, Morelos",18.8449428,-99.2236369,municipio,"Anáhuac, NL",21,1,22,0,0,0,0,0,0,0,0,0,0,0,0,1,0,1,0,0,0,57,3,60,0,0,0,0,3,3,0,0,0,0,0,0,79,7,86
324,"Tocatlán, Tlaxcala",19.389167,-98.03,municipio,"Yauhquemehcan, Tlax.",0,0,0,9,1,10,62,13,75,5,1,6,0,0,0,0,0,0,0,0,0,0,0,0,0,0,0,0,4,4,3,0,3,0,0,0,79,19,98
299,"Tampico, Tamaulipas",22.2157619,-97.8577713,municipio,"Atlangatepec, Tlax.",76,9,85,0,0,0,0,0,0,0,0,0,0,0,0,0,0,0,0,0,0,0,0,0,0,0,0,0,0,0,0,0,0,0,0,0,76,9,85
189,"Heroica Ciudad de Huajuapan de León, Oaxaca",17.808846,-97.7780564,municipio,"Salina Cruz, Oax.",0,0,0,0,0,0,10,4,14,0,0,0,0,0,0,3,0,3,0,0,0,0,18,18,0,20,20,32,18,50,27,23,50,0,0,0,72,83,155
104,"Celaya, Guanajuato",20.521788,-100.8140458,municipio,"San Luis de la Paz, Gto.",6,0,6,30,0,30,21,0,21,8,0,8,0,0,0,0,0,0,0,0,0,0,0,0,0,0,0,0,0,0,0,0,0,0,0,0,65,0,65
177,"Parás, Nuevo León",26.4993853,-99.5229954,municipio,"Santa Catarina, NL",6,6,12,0,0,0,0,0,0,30,13,43,0,0,0,0,0,0,0,0,0,0,5,5,18,36,54,8,22,30,1,21,22,1,0,1,64,103,167
298,"Soto la Marina, Tamaulipas",23.87599915,-98.050264,municipio,"Apizaco, Tlax.",9,3,12,5,4,9,4,0,4,19,3,22,8,53,61,0,0,0,7,10,17,0,0,0,1,0,1,3,0,3,3,0,3,1,0,1,60,73,133
12,"Calakmul, Campeche",18.1073406,-89.80832804,municipio,"Los Cabos, BCS",2,0,2,0,0,0,1,0,1,2,0,2,0,0,0,0,0,0,0,0,0,6,0,6,17,0,17,2,0,2,21,0,21,6,1,7,57,1,58
125,"Huasca de Ocampo, Hidalgo",20.2231549,-98.55524673,municipio,"Tula de Allende, Hgo.",3,0,3,26,21,47,2,0,2,0,0,0,0,0,0,0,0,0,0,0,0,0,0,0,0,0,0,24,0,24,0,0,0,0,0,0,55,21,76
155,"Tepic, Nayarit",21.5119156,-104.8915889,municipio,"China, NL",0,0,0,0,0,0,49,75,124,0,0,0,0,0,0,0,0,0,0,0,0,0,2,2,6,14,20,0,0,0,0,0,0,0,0,0,55,91,146
173,"Los Ramones, Nuevo León",25.6973768,-99.6250811,municipio,"Pesquería, NL",0,0,0,0,0,0,11,13,24,0,0,0,36,0,36,0,8,8,0,0,0,0,13,13,4,5,9,3,0,3,0,0,0,0,0,0,54,39,93
180,"San Nicolás de los Garza, Nuevo León",25.7558021,-100.289648,municipio,"Chahuites, Oax.",0,0,0,0,0,0,0,0,0,3,0,3,0,0,0,0,0,0,0,0,0,0,0,0,0,0,0,0,0,0,51,0,51,0,0,0,54,0,54
380,"Xalapa, Veracruz",19.5408338,-96.9146374,municipio,"Xalapa, Ver.",21,3,24,2,9,11,0,20,20,12,0,12,3,0,3,0,0,0,15,0,15,0,0,0,0,0,0,0,0,0,0,18,18,0,0,0,53,50,103
80,"Durango, Durango",24.833333,-104.833333,municipio,"Atlacomulco, Méx.",0,0,0,0,0,0,0,0,0,0,0,0,0,0,0,0,0,0,0,0,0,0,0,0,51,0,51,0,0,0,0,0,0,0,0,0,51,0,51
291,"Jiménez, Tamaulipas",24.2169169,-98.483929,municipio,"Río Bravo, Tamps.",0,0,0,50,0,50,0,0,0,0,0,0,0,0,0,0,0,0,0,0,0,0,0,0,0,0,0,0,0,0,0,0,0,0,0,0,50,0,50
197,"San Antonio de la Cal, Oaxaca",17.028333,-96.700556,municipio,"San Francisco Telixtlahuaca, Oax.",0,0,0,0,0,0,0,0,0,0,0,0,0,0,0,0,0,0,0,0,0,0,0,0,0,0,0,0,0,0,33,0,33,16,0,16,49,0,49
186,"Ciudad Ixtepec, Oaxaca",16.5564139,-95.0959653,municipio,"Matías Romero Avendaño, Oax.",20,22,42,0,35,35,0,0,0,0,0,0,0,0,0,1,0,1,0,2,2,23,37,60,0,0,0,0,0,0,0,17,17,0,0,0,44,113,157
264,"Navojoa, Sonora",27.0721872,-109.4438227,municipio,"Centla, Tab.",0,0,0,0,0,0,0,0,0,0,0,0,0,1,1,43,0,43,1,0,1,0,0,0,0,0,0,0,0,0,0,0,0,0,0,0,44,1,45
100,"Xalatlaco, México",19.1843821,-99.4145622,municipio,"Irapuato, Gto.",5,0,5,22,0,22,6,0,6,4,0,4,1,0,1,5,0,5,0,0,0,0,0,0,0,0,0,0,0,0,0,0,0,0,0,0,43,0,43
175,"Montemorelos, Nuevo León",25.1886604,-99.8293539,municipio,"San Nicolás de los Garza, NL",0,0,0,0,0,0,26,7,33,0,0,0,16,0,16,0,0,0,1,0,1,0,0,0,0,0,0,0,0,0,0,0,0,0,0,0,43,7,50
223,"Santa María Mixtequilla, Oaxaca",16.374444,-95.259722,municipio,"Santo Domingo Yanhuitlán, Oax.",0,0,0,0,0,0,0,0,0,0,1,1,0,0,0,0,0,0,0,0,0,15,0,15,9,0,9,19,0,19,0,0,0,0,0,0,43,1,44
222,"Santa María Jalapa del Marqués, Oaxaca",16.4403557,-95.4448148,municipio,"Santo Domingo Tehuantepec, Oax.",0,0,0,0,0,0,0,7,7,0,0,0,0,0,0,0,0,0,0,0,0,8,24,32,28,0,28,0,0,0,0,55,55,6,94,100,42,180,222
342,"Cosoleacaque, Veracruz",18.0060183,-94.61748301,municipio,"Cuitláhuac, Ver.",0,41,41,17,20,37,0,0,0,13,0,13,0,49,49,0,133,133,0,181,181,0,132,132,12,411,423,0,176,176,0,134,134,0,128,128,42,1405,1447
245,"Othón P. Blanco, Quintana Roo",18.43704555,-88.82575816,municipio,"Angostura, Sin.",20,21,41,0,0,0,21,17,38,0,0,0,0,0,0,0,0,0,0,0,0,0,0,0,0,0,0,0,0,0,0,0,0,0,0,0,41,38,79
319,"Sanctórum de Lázaro Cárdenas, Tlaxcala",19.4925,-98.471944,municipio,"Tlaxco, Tlax.",1,0,1,0,0,0,8,0,8,12,2,14,0,0,0,0,0,0,1,6,7,4,0,4,6,0,6,1,0,1,1,0,1,6,0,6,40,8,48
344,"Cuitláhuac, Veracruz",18.814226,-96.7223775,municipio,"Fortín, Ver.",2,0,2,35,0,35,0,0,0,3,0,3,0,5,5,0,4,4,0,0,0,0,0,0,0,0,0,0,5,5,0,0,0,0,0,0,40,14,54
6,"Playas de Rosarito, Baja California",32.25812915,-116.8733072,municipio,"Playas de Rosarito, BC",2,0,2,7,0,7,5,0,5,3,0,3,7,0,7,1,0,1,2,0,2,2,0,2,4,0,4,4,0,4,0,0,0,1,0,1,38,0,38
92,"Naucalpan de Juárez, México",19.4788356,-99.2327986,municipio,"Tlalnepantla de Baz, Méx.",0,0,0,0,0,0,1,0,1,0,0,0,0,0,0,2,0,2,0,0,0,0,0,0,22,22,44,0,0,0,0,0,0,13,15,28,38,37,75
217,"Santa Lucía del Camino, Oaxaca",17.0625,-96.693333,municipio,"Santa María Mixtequilla, Oax.",0,0,0,0,0,0,0,0,0,0,0,0,0,0,0,0,0,0,0,0,0,0,0,0,0,0,0,0,0,0,0,0,0,37,0,37,37,0,37
228,"Santo Domingo Tehuantepec, Oaxaca",16.3172613,-95.2468005,municipio,"Villa de Tututepec, Oax.",0,0,0,25,0,25,0,0,0,0,0,0,12,0,12,0,0,0,0,0,0,0,0,0,0,0,0,0,0,0,0,0,0,0,0,0,37,0,37
39,"Mezcalapa, Chiapas",17.2364959,-93.63497517,municipio,"Mapastepec, Chis.",0,0,0,0,0,0,0,0,0,0,0,0,0,0,0,0,0,0,0,0,0,35,0,35,0,0,0,0,0,0,0,0,0,0,0,0,35,0,35
202,"San Francisco Telixtlahuaca, Oaxaca",17.296628,-96.9056112,municipio,"San Pablo Etla, Oax.",0,0,0,29,0,29,0,0,0,6,0,6,0,0,0,0,0,0,0,0,0,0,0,0,0,0,0,0,0,0,0,0,0,0,0,0,35,0,35
283,"Aldama, Tamaulipas",22.9196081,-98.0741727,municipio,"Hidalgo, Tamps.",4,1,5,12,0,12,11,0,11,4,0,4,0,0,0,2,2,4,0,0,0,0,0,0,2,2,4,0,0,0,0,7,7,0,0,0,35,12,47
206,"San Lorenzo Cacaotepec, Oaxaca",17.1278714,-96.8017692,municipio,"San Pedro Pochutla, Oax.",0,0,0,33,0,33,0,0,0,1,0,1,0,0,0,0,0,0,0,0,0,0,0,0,0,2,2,0,0,0,0,0,0,0,0,0,34,2,36
91,"Ixtapaluca, México",19.3129326,-98.8840481,municipio,"Texcoco, Méx.",0,0,0,0,0,0,0,0,0,0,0,0,0,0,0,0,0,0,0,0,0,0,0,0,33,120,153,0,0,0,0,0,0,0,0,0,33,120,153
249,"San Luis Potosí, San Luis Potosí",22.5000001,-100.4949145,municipio,"Agua Prieta, Son.",0,0,0,0,0,0,0,0,0,13,0,13,17,2,19,0,0,0,1,0,1,1,0,1,0,0,0,0,0,0,1,0,1,0,0,0,33,2,35
121,"Atitalaquia, Hidalgo",20.0597395,-99.2132882,municipio,"Pachuca de Soto, Hgo.",1,1,2,5,0,5,0,0,0,19,1,20,0,3,3,5,1,6,0,0,0,1,0,1,0,0,0,1,0,1,0,4,4,0,0,0,32,10,42
122,"Chapulhuacán, Hidalgo",21.1263192,-98.95211916,municipio,"Tepeapulco, Hgo.",16,0,16,13,3,16,2,0,2,1,0,1,0,0,0,0,0,0,0,0,0,0,0,0,0,0,0,0,0,0,0,0,0,0,0,0,32,3,35
191,"Matías Romero Avendaño, Oaxaca",16.8761133,-95.0405586,municipio,"San Andrés Huaxpaltepec, Oax.",0,0,0,31,0,31,0,0,0,0,0,0,0,0,0,0,0,0,0,0,0,0,0,0,0,0,0,0,0,0,0,0,0,0,0,0,31,0,31
0,"Aguascalientes, Aguascalientes",22.0000001,-102.5000001,municipio,"Aguascalientes, Ags.",0,0,0,0,0,0,14,12,26,1,0,1,0,0,0,0,0,0,8,1,9,5,2,7,0,0,0,1,0,1,0,0,0,0,0,0,29,15,44
99,"Toluca, México",19.292545,-99.6569007,municipio,"Comonfort, Gto.",5,0,5,6,0,6,17,0,17,1,0,1,0,0,0,0,0,0,0,0,0,0,0,0,0,0,0,0,0,0,0,0,0,0,0,0,29,0,29
198,"San Bartolo Coyotepec, Oaxaca",16.9575983,-96.7066199,municipio,"San Jacinto Amilpas, Oax.",0,0,0,0,0,0,0,0,0,0,0,0,0,0,0,29,16,45,0,0,0,0,0,0,0,0,0,0,0,0,0,0,0,0,0,0,29,16,45
293,"Miguel Alemán, Tamaulipas",26.3995446,-99.0314218,municipio,"Soto la Marina, Tamps.",0,0,0,2,0,2,14,9,23,0,1,1,0,0,0,1,2,3,0,0,0,0,0,0,12,12,24,0,1,1,0,0,0,0,0,0,29,25,54
229,"Santo Domingo Yanhuitlán, Oaxaca",17.5273478,-97.3421502,municipio,"Villa de Zaachila, Oax.",0,0,0,0,0,0,0,0,0,0,0,0,0,0,0,0,0,0,0,0,0,0,0,0,28,50,78,0,0,0,0,0,0,0,0,0,28,50,78
1,"Cosío, Aguascalientes",22.3705155,-102.3120085,municipio,"Cosío, Ags.",0,0,0,0,0,0,2,1,3,19,3,22,0,0,0,0,0,0,0,4,4,5,0,5,0,0,0,0,27,27,1,20,21,0,16,16,27,71,98
184,"Asunción Nochixtlán, Oaxaca",17.457222,-97.225,municipio,"Heroica Ciudad de Huajuapan de León, Oax.",0,0,0,3,0,3,0,2,2,0,0,0,0,0,0,0,0,0,0,0,0,3,0,3,3,0,3,0,0,0,0,3,3,18,14,32,27,19,46
165,"García, Nuevo León",25.6651753,-100.4018251,municipio,"Hualahuises, NL",0,0,0,0,0,0,0,0,0,0,0,0,26,8,34,0,0,0,0,0,0,0,0,0,0,0,0,0,0,0,0,0,0,0,0,0,26,8,34
295,"Reynosa, Tamaulipas",26.0907673,-98.2788191,municipio,"Victoria, Tamps.",0,0,0,1,0,1,3,0,3,6,0,6,1,0,1,0,0,0,0,0,0,0,0,0,15,2,17,0,0,0,0,5,5,0,0,0,26,7,33
375,"Tihuatlán, Veracruz",20.716735,-97.53678596,municipio,"Tihuatlán, Ver.",0,0,0,1,0,1,0,0,0,25,4,29,0,0,0,0,5,5,0,0,0,0,0,0,0,0,0,0,0,0,0,0,0,0,0,0,26,9,35
385,"Calera, Zacatecas",22.97848,-102.8562229,municipio,"Calera, Zac.",0,0,0,0,0,0,0,0,0,7,1,8,0,0,0,0,0,0,18,4,22,0,0,0,0,0,0,0,0,0,1,11,12,0,0,0,26,16,42
108,"León, Guanajuato",21.1218598,-101.6825081,municipio,"Chilpancingo de los Bravo, Gro.",1,0,1,19,5,24,5,0,5,0,0,0,0,0,0,0,0,0,0,0,0,0,0,0,0,0,0,0,0,0,0,0,0,0,0,0,25,5,30
260,"Guaymas, Sonora",27.9216441,-110.8994059,municipio,"San Luis Río Colorado, Son.",0,0,0,1,0,1,0,26,26,13,2,15,0,0,0,11,14,25,0,0,0,0,0,0,0,0,0,0,0,0,0,0,0,0,0,0,25,42,67
156,"Anáhuac, Nuevo León",27.0285283,-100.0333715,municipio,"Ciénega de Flores, NL",3,2,5,5,3,8,5,4,9,1,0,1,0,0,0,0,0,0,0,0,0,0,0,0,1,0,1,1,0,1,8,8,16,0,0,0,24,17,41
300,"Victoria, Tamaulipas",23.7389846,-99.1441352,municipio,"Calpulalpan, Tlax.",0,0,0,0,0,0,0,0,0,0,0,0,0,0,0,0,0,0,0,0,0,0,0,0,0,0,0,14,1,15,10,0,10,0,0,0,24,1,25
352,"Las Choapas, Veracruz",17.56348585,-93.94000864,municipio,"Las Choapas, Ver.",0,24,24,7,12,19,1,0,1,0,0,0,0,36,36,0,10,10,0,10,10,0,101,101,0,16,16,0,2,2,0,14,14,16,51,67,24,276,300
4,"Ensenada, Baja California",31.8658887,-116.602983,municipio,"Ensenada, BC",4,0,4,1,0,1,5,1,6,4,0,4,1,0,1,2,2,4,5,0,5,0,0,0,0,0,0,0,0,0,0,0,0,1,0,1,23,3,26
77,"Colima, Colima",19.166667,-104,municipio,"Mapimí, Dgo.",0,0,0,0,0,0,0,0,0,23,0,23,0,0,0,0,0,0,0,0,0,0,0,0,0,0,0,0,0,0,0,0,0,0,0,0,23,0,23
238,"El Marqués, Querétaro",20.73507785,-100.2835765,municipio,"Isla Mujeres, Q. Roo",10,0,10,4,0,4,2,0,2,0,0,0,0,0,0,0,0,0,0,0,0,0,1,1,0,0,0,0,0,0,0,0,0,7,0,7,23,1,24
97,"Texcoco, México",19.5144327,-98.8821254,municipio,"Apaseo el Grande, Gto.",0,0,0,0,0,0,0,0,0,22,0,22,0,0,0,0,0,0,0,0,0,0,0,0,0,0,0,0,0,0,0,0,0,0,0,0,22,0,22
120,"Apan, Hidalgo",19.7098559,-98.4502318,municipio,"Mineral de la Reforma, Hgo.",1,0,1,0,0,0,0,0,0,0,0,0,0,0,0,18,0,18,0,0,0,1,0,1,0,0,0,0,0,0,0,0,0,2,0,2,22,0,22
216,"Santa Cruz Xoxocotlán, Oaxaca",17.026389,-96.733333,municipio,"Santa María Jalapa del Marqués, Oax.",22,114,136,0,167,167,0,182,182,0,144,144,0,22,22,0,1,1,0,46,46,0,111,111,0,181,181,0,159,159,0,116,116,0,0,0,22,1243,1265
321,"Tetla de la Solidaridad, Tlaxcala",19.440556,-98.103333,municipio,"Tzompantepec, Tlax.",0,0,0,1,0,1,18,1,19,2,0,2,0,0,0,0,0,0,0,11,11,0,0,0,0,0,0,0,0,0,0,0,0,0,0,0,21,12,33
25,"Chenalhó, Chiapas",16.9717161,-92.51921238,municipio,"Berriozábal, Chis.",0,0,0,0,0,0,0,0,0,0,0,0,20,0,20,0,0,0,0,0,0,0,0,0,0,0,0,0,121,121,0,0,0,0,0,0,20,121,141
208,"San Pablo Etla, Oaxaca",17.144444,-96.76,municipio,"San Pedro Totolápam, Oax.",6,0,6,14,0,14,0,0,0,0,0,0,0,0,0,0,0,0,0,0,0,0,0,0,0,0,0,0,0,0,0,0,0,0,0,0,20,0,20
387,"Trancoso, Zacatecas",22.7353025,-102.3667969,municipio,"Trancoso, Zac.",0,0,0,0,0,0,0,0,0,3,0,3,0,0,0,0,0,0,9,3,12,0,0,0,3,28,31,4,46,50,1,2,3,0,0,0,20,79,99
126,"Ixmiquilpan, Hidalgo",20.481944,-99.218056,municipio,"Tulancingo de Bravo, Hgo.",0,0,0,0,0,0,5,0,5,4,0,4,0,0,0,1,0,1,2,0,2,0,0,0,0,0,0,0,0,0,1,0,1,6,0,6,19,0,19
174,"Mina, Nuevo León",26.0025145,-100.5300485,municipio,"Salinas Victoria, NL",0,0,0,0,0,0,0,0,0,2,0,2,9,0,9,6,0,6,0,0,0,0,0,0,0,0,0,0,0,0,1,0,1,0,0,0,18,0,18
237,"Puebla, Puebla",18.833333,-98,municipio,"Cozumel, Q. Roo",0,0,0,15,0,15,1,0,1,0,0,0,0,0,0,0,0,0,0,0,0,2,6,8,0,0,0,0,0,0,0,0,0,0,0,0,18,6,24
282,"Tenosique, Tabasco",17.4707129,-91.4220212,municipio,"Gustavo Díaz Ordaz, Tamps.",0,0,0,12,0,12,6,0,6,0,0,0,0,0,0,0,0,0,0,0,0,0,0,0,0,0,0,0,0,0,0,0,0,0,0,0,18,0,18
127,"Mineral de la Reforma, Hidalgo",20.06063885,-98.73057242,municipio,"Villa de Tezontepec, Hgo.",8,0,8,3,0,3,6,0,6,0,0,0,0,0,0,0,0,0,0,0,0,0,0,0,0,0,0,0,0,0,0,0,0,0,0,0,17,0,17
302,"Apetatitlán de Antonio Carvajal, Tlaxcala",19.3505173,-98.19120205,municipio,"Cuapiaxtla, Tlax.",0,0,0,17,29,46,0,0,0,0,0,0,0,0,0,0,0,0,0,0,0,0,0,0,0,0,0,0,0,0,0,0,0,0,0,0,17,29,46
21,"Acacoyagua, Chiapas",15.4060577,-92.69729393,municipio,"Tenabo, Camp.",0,0,0,0,0,0,0,0,0,0,0,0,0,0,0,0,0,0,0,0,0,15,5,20,1,0,1,0,0,0,0,0,0,0,0,0,16,5,21
287,"El Mante, Tamaulipas",22.60787365,-98.93534141,municipio,"Miguel Alemán, Tamps.",2,0,2,2,0,2,1,0,1,0,0,0,0,0,0,5,0,5,0,0,0,0,0,0,6,0,6,0,0,0,0,0,0,0,0,0,16,0,16
124,"Epazoyucan, Hidalgo",20.0181268,-98.6364294,municipio,"Tizayuca, Hgo.",0,0,0,0,0,0,1,0,1,1,0,1,0,0,0,0,0,0,0,0,0,0,0,0,0,0,0,0,0,0,0,0,0,13,0,13,15,0,15
346,"Gutiérrez Zamora, Veracruz",20.456991,-97.08553611,municipio,"Isla, Ver.",0,0,0,0,0,0,0,0,0,0,0,0,0,0,0,15,0,15,0,0,0,0,0,0,0,0,0,0,0,0,0,0,0,0,0,0,15,0,15
220,"Santa María del Tule, Oaxaca",17.0476822,-96.6334574,municipio,"Santiago Niltepec, Oax.",14,0,14,0,0,0,0,0,0,0,0,0,0,0,0,0,0,0,0,0,0,0,0,0,0,0,0,0,0,0,0,0,0,0,0,0,14,0,14
301,"Amaxac de Guerrero, Tlaxcala",19.348889,-98.167778,municipio,"Chiautempan, Tlax.",0,0,0,0,0,0,2,0,2,0,0,0,0,0,0,0,0,0,0,0,0,0,0,0,0,0,0,7,0,7,4,2,6,1,0,1,14,2,16
106,"Dolores Hidalgo Cuna de la Independencia Nacional, Guanajuato",21.1043597,-100.7259581,municipio,"Acapulco de Juárez, Gro.",1,0,1,0,0,0,3,14,17,4,0,4,0,1,1,4,0,4,1,0,1,0,0,0,0,4,4,0,0,0,0,0,0,0,0,0,13,19,32
142,"Cuitzeo, Michoacán",19.9693141,-101.1412203,municipio,"Cuernavaca, Mor.",8,0,8,1,0,1,1,0,1,1,0,1,0,0,0,0,0,0,0,3,3,2,0,2,0,0,0,0,3,3,0,0,0,0,0,0,13,6,19
178,"Pesquería, Nuevo León",25.7851361,-100.0520621,municipio,"Santiago, NL",0,0,0,0,0,0,5,10,15,0,0,0,1,0,1,1,0,1,0,0,0,5,0,5,0,0,0,0,0,0,1,0,1,0,0,0,13,10,23
200,"San Cristóbal Suchixtlahuaca, Oaxaca",17.7265261,-97.3666425,municipio,"San Juan Bautista Tuxtepec, Oax.",0,0,0,0,0,0,0,0,0,0,0,0,0,0,0,0,0,0,0,0,0,13,58,71,0,9,9,0,0,0,0,28,28,0,0,0,13,95,108
309,"Hueyotlipan, Tlaxcala",19.469444,-98.348056,municipio,"Natívitas, Tlax.",0,0,0,0,0,0,0,0,0,0,0,0,1,0,1,0,0,0,0,0,0,0,0,0,0,0,0,12,4,16,0,0,0,0,0,0,13,4,17
110,"Salamanca, Guanajuato",20.571358,-101.192444,municipio,"Zihuatanejo de Azueta, Gro.",1,0,1,8,2,10,3,0,3,0,0,0,0,0,0,0,0,0,0,0,0,0,0,0,0,0,0,0,0,0,0,0,0,0,0,0,12,2,14
154,"Bahía de Banderas, Nayarit",20.8290434,-105.3175087,municipio,"Cadereyta Jiménez, NL",0,6,6,3,23,26,1,0,1,0,0,0,0,0,0,0,0,0,1,0,1,0,0,0,0,0,0,0,0,0,6,42,48,1,0,1,12,71,83
187,"Concepción Buenavista, Oaxaca",17.8781515,-97.4004708,municipio,"Miahuatlán de Porfirio Díaz, Oax.",0,0,0,0,0,0,1,0,1,1,0,1,0,0,0,0,0,0,6,0,6,3,0,3,0,0,0,1,0,1,0,0,0,0,0,0,12,0,12
275,"Emiliano Zapata, Tabasco",17.693626,-91.63973456,municipio,"Aldama, Tamps.",0,0,0,8,2,10,4,0,4,0,0,0,0,0,0,0,0,0,0,0,0,0,0,0,0,0,0,0,0,0,0,0,0,0,0,0,12,2,14
294,"Nuevo Laredo, Tamaulipas",27.4950571,-99.5074431,municipio,"Tampico, Tamps.",0,0,0,0,0,0,0,2,2,0,0,0,0,0,0,2,0,2,1,0,1,0,0,0,1,0,1,4,3,7,0,25,25,4,5,9,12,35,47
19,"Seybaplaya, Campeche",19.60337225,-90.62536696,municipio,"Palizada, Camp.",0,0,0,0,0,0,0,0,0,0,0,0,0,0,0,0,0,0,0,0,0,0,0,0,0,0,0,11,10,21,0,0,0,0,0,0,11,10,21
157,"Apodaca, Nuevo León",25.7816542,-100.1887501,municipio,"Doctor Arroyo, NL",0,0,0,0,0,0,0,0,0,0,0,0,11,0,11,0,0,0,0,0,0,0,0,0,0,0,0,0,0,0,0,0,0,0,0,0,11,0,11
246,"Solidaridad, Quintana Roo",20.5843747,-87.50345268,municipio,"Culiacán, Sin.",2,0,2,4,0,4,2,0,2,1,0,1,2,0,2,0,0,0,0,0,0,0,0,0,0,0,0,0,0,0,0,0,0,0,0,0,11,0,11
314,"Natívitas, Tlaxcala",19.233333,-98.314722,municipio,"Sanctórum de Lázaro Cárdenas, Tlax.",11,2,13,0,0,0,0,0,0,0,0,0,0,0,0,0,0,0,0,0,0,0,0,0,0,0,0,0,0,0,0,0,0,0,0,0,11,2,13
20,"Tenabo, Campeche",20.0406607,-90.2254956,municipio,"Seybaplaya, Camp.",0,0,0,0,0,0,5,3,8,3,0,3,1,0,1,0,0,0,0,0,0,0,0,0,1,0,1,0,0,0,0,0,0,0,0,0,10,3,13
32,"Frontera Comalapa, Chiapas",15.6590135,-92.1422219,municipio,"Escuintla, Chis.",0,0,0,0,0,0,0,0,0,0,0,0,3,0,3,7,9,16,0,0,0,0,0,0,0,0,0,0,0,0,0,0,0,0,0,0,10,9,19
73,"Nava, Coahuila",28.4217309,-100.7674167,municipio,"Manzanillo, Col.",1,0,1,0,0,0,2,0,2,0,0,0,0,0,0,0,0,0,0,0,0,1,0,1,5,0,5,0,0,0,1,0,1,0,0,0,10,0,10
87,"Chalco, México",19.2382585,-98.81888376,municipio,"Nezahualcóyotl, Méx.",0,0,0,0,0,0,0,0,0,0,0,0,0,0,0,0,0,0,0,0,0,0,0,0,0,10,10,10,2,12,0,0,0,0,0,0,10,12,22
183,"Santiago, Nuevo León",25.4243595,-100.1513376,municipio,"El Espinal, Oax.",0,0,0,0,0,0,0,0,0,0,0,0,0,0,0,0,0,0,0,0,0,4,0,4,0,0,0,0,0,0,0,0,0,6,0,6,10,0,10
339,"Coatzacoalcos, Veracruz",18.1396787,-94.4501731,municipio,"Cosamaloapan de Carpio, Ver.",0,7,7,10,123,133,0,0,0,0,19,19,0,467,467,0,204,204,0,274,274,0,389,389,0,778,778,0,432,432,0,268,268,0,124,124,10,3085,3095
46,"Salto de Agua, Chiapas",17.4348976,-92.2248025,municipio,"Salto de Agua, Chis.",0,0,0,2,0,2,2,0,2,0,0,0,0,0,0,0,0,0,5,0,5,0,0,0,0,0,0,0,0,0,0,0,0,0,0,0,9,0,9
105,"Comonfort, Guanajuato",20.7199475,-100.761188,municipio,"San Miguel de Allende, Gto.",2,0,2,5,0,5,0,1,1,1,0,1,0,0,0,1,0,1,0,0,0,0,6,6,0,0,0,0,0,0,0,0,0,0,0,0,9,7,16
163,"El Carmen, Nuevo León",25.9368419,-100.3613419,municipio,"General Zuazua, NL",0,0,0,0,0,0,0,0,0,0,0,0,0,0,0,0,0,0,1,0,1,0,4,4,8,22,30,0,0,0,0,0,0,0,0,0,9,26,35
181,"San Pedro Garza García, Nuevo León",25.6651753,-100.4018251,municipio,"Ciudad Ixtepec, Oax.",1,0,1,0,0,0,1,0,1,4,0,4,0,0,0,1,0,1,0,0,0,1,0,1,0,0,0,0,0,0,1,0,1,0,1,1,9,1,10
213,"San Pedro Tapanatepec, Oaxaca",16.3689223,-94.1927528,municipio,"Santa María Coyotepec, Oax.",0,0,0,0,0,0,0,0,0,0,0,0,0,0,0,0,0,0,0,0,0,0,0,0,0,0,0,5,0,5,4,0,4,0,0,0,9,0,9
235,"Villa de Zaachila, Oaxaca",16.950833,-96.749167,municipio,"Bacalar, Q. Roo",0,0,0,0,0,0,0,0,0,0,0,0,0,0,0,0,0,0,0,0,0,4,0,4,5,0,5,0,0,0,0,0,0,0,0,0,9,0,9
278,"Macuspana, Tabasco",17.760922,-92.596108,municipio,"Camargo, Tamps.",0,0,0,0,0,0,6,0,6,0,0,0,0,0,0,0,0,0,0,0,0,0,0,0,3,0,3,0,16,16,0,0,0,0,0,0,9,16,25
289,"Hidalgo, Tamaulipas",24.2480354,-99.4382079,municipio,"Padilla, Tamps.",0,0,0,0,0,0,0,0,0,0,0,0,0,0,0,0,0,0,0,0,0,0,0,0,9,16,25,0,0,0,0,0,0,0,0,0,9,16,25
367,"San Andrés Tuxtla, Veracruz",18.4633672,-95.19831534,municipio,"San Andrés Tuxtla, Ver.",0,18,18,0,29,29,0,0,0,9,14,23,0,4,4,0,0,0,0,0,0,0,15,15,0,0,0,0,0,0,0,13,13,0,0,0,9,93,102
145,"Uruapan, Michoacán",19.4147269,-102.0522647,municipio,"Puente de Ixtla, Mor.",0,0,0,2,0,2,4,0,4,0,0,0,0,0,0,0,0,0,0,0,0,0,0,0,1,0,1,1,0,1,0,0,0,0,0,0,8,0,8
160,"China, Nuevo León",25.4915799,-98.9811115,municipio,"García, NL",2,0,2,0,0,0,0,0,0,1,0,1,1,0,1,1,0,1,0,0,0,0,2,2,0,0,0,0,0,0,2,1,3,1,6,7,8,9,17
179,"Salinas Victoria, Nuevo León",26.1216805,-100.3270877,municipio,"Asunción Nochixtlán, Oax.",0,0,0,0,0,0,0,0,0,0,0,0,0,0,0,0,0,0,2,0,2,0,0,0,6,5,11,0,0,0,0,0,0,0,0,0,8,5,13
325,"Tzompantepec, Tlaxcala",19.38326045,-98.08616228,municipio,"Zacatelco, Tlax.",0,0,0,0,0,0,0,0,0,1,0,1,0,0,0,0,0,0,0,0,0,1,0,1,4,0,4,2,0,2,0,0,0,0,0,0,8,0,8
360,"Ozuluama de Mascareñas, Veracruz",21.661111,-97.850556,municipio,"Ozuluama de Mascareñas, Ver.",0,0,0,0,0,0,5,5,10,0,0,0,3,59,62,0,2,2,0,0,0,0,0,0,0,0,0,0,0,0,0,0,0,0,0,0,8,66,74
362,"Papantla, Veracruz",20.4458721,-97.32327775,municipio,"Papantla, Ver.",0,0,0,0,0,0,0,0,0,2,0,2,3,6,9,0,11,11,0,0,0,0,0,0,3,23,26,0,0,0,0,0,0,0,0,0,8,40,48
31,"Escuintla, Chiapas",15.35100255,-92.55576537,municipio,"Copainalá, Chis.",0,0,0,0,0,0,0,0,0,0,0,0,0,0,0,0,0,0,6,0,6,0,0,0,0,0,0,0,0,0,1,0,1,0,0,0,7,0,7
98,"Tlalnepantla de Baz, México",19.54649025,-99.18993522,municipio,"Celaya, Gto.",1,0,1,4,0,4,0,0,0,2,0,2,0,0,0,0,1,1,0,0,0,0,0,0,0,0,0,0,0,0,0,0,0,0,0,0,7,1,8
146,"Zinapécuaro, Michoacán",19.8563181,-100.7709097,municipio,"Temixco, Mor.",0,0,0,0,0,0,0,0,0,0,0,0,2,0,2,0,0,0,2,0,2,2,0,2,1,0,1,0,0,0,0,0,0,0,0,0,7,0,7
196,"San Andrés Huaxpaltepec, Oaxaca",16.3411829,-97.93462519,municipio,"San Dionisio Ocotepec, Oax.",0,0,0,0,0,0,0,0,0,7,0,7,0,0,0,0,0,0,0,0,0,0,0,0,0,0,0,0,0,0,0,0,0,0,0,0,7,0,7
221,"Santa María Huatulco, Oaxaca",15.8337711,-96.3214401,municipio,"Santiago Pinotepa Nacional, Oax.",2,0,2,5,0,5,0,0,0,0,0,0,0,0,0,0,0,0,0,0,0,0,0,0,0,0,0,0,0,0,0,0,0,0,0,0,7,0,7
41,"Ocosingo, Chiapas",16.9057,-92.092776,municipio,"Motozintla, Chis.",2,0,2,1,0,1,0,0,0,0,0,0,0,1,1,2,0,2,0,0,0,1,1,2,0,0,0,0,0,0,0,0,0,0,0,0,6,2,8
72,"Monclova, Coahuila",26.8999988,-101.4171173,municipio,"Colima, Col.",0,0,0,1,0,1,0,0,0,0,0,0,0,0,0,2,0,2,1,0,1,2,0,2,0,0,0,0,0,0,0,0,0,0,0,0,6,0,6
102,"Apaseo el Alto, Guanajuato",20.4562767,-100.621263,municipio,"Ocampo, Gto.",5,0,5,0,0,0,1,0,1,0,0,0,0,0,0,0,0,0,0,0,0,0,0,0,0,0,0,0,0,0,0,0,0,0,0,0,6,0,6
103,"Apaseo el Grande, Guanajuato",20.59193265,-100.5979868,municipio,"Salamanca, Gto.",0,0,0,5,0,5,0,0,0,1,0,1,0,0,0,0,0,0,0,0,0,0,0,0,0,0,0,0,0,0,0,0,0,0,0,0,6,0,6
320,"Santa Cruz Quilehtla, Tlaxcala",19.212222,-98.221111,municipio,"Tocatlán, Tlax.",0,0,0,0,0,0,0,0,0,5,2,7,1,0,1,0,0,0,0,0,0,0,0,0,0,0,0,0,0,0,0,0,0,0,0,0,6,2,8
7,"San Felipe, Baja California",31.0269529,-114.839607,municipio,"San Felipe, BC",0,0,0,0,0,0,1,0,1,0,0,0,1,0,1,0,0,0,0,0,0,0,0,0,0,0,0,2,0,2,1,0,1,0,0,0,5,0,5
193,"Oaxaca de Juárez, Oaxaca",17.0604663,-96.7253575,municipio,"San Bartolo Coyotepec, Oax.",0,0,0,0,0,0,0,0,0,0,0,0,0,0,0,0,0,0,0,0,0,0,0,0,0,0,0,5,0,5,0,0,0,0,0,0,5,0,5
242,"Benito Juárez, Quintana Roo",21.07668085,-86.92633522,municipio,"Cedral, SLP",0,0,0,0,0,0,0,0,0,0,0,0,5,0,5,0,0,0,0,0,0,0,0,0,0,0,0,0,0,0,0,0,0,0,0,0,5,0,5
374,"Tierra Blanca, Veracruz",18.5272475,-96.21520077,municipio,"Tierra Blanca, Ver.",5,0,5,0,0,0,0,0,0,0,0,0,0,6,6,0,0,0,0,0,0,0,1,1,0,1,1,0,0,0,0,0,0,0,0,0,5,8,13
384,"Valladolid, Yucatán",20.6902505,-88.2016999,municipio,"Valladolid, Yuc.",0,0,0,0,0,0,0,0,0,0,0,0,0,0,0,0,0,0,0,0,0,5,0,5,0,0,0,0,0,0,0,0,0,0,0,0,5,0,5
42,"Ocozocoautla de Espinosa, Chiapas",16.7931431,-93.45696355,municipio,"Ocosingo, Chis.",0,0,0,0,0,0,0,0,0,1,0,1,0,0,0,2,0,2,0,0,0,0,20,20,0,7,7,0,27,27,1,9,10,0,3,3,4,66,70
113,"Acapulco de Juárez, Guerrero",16.8680495,-99.8940182,municipio,"Apan, Hgo.",0,0,0,2,0,2,1,0,1,0,0,0,0,0,0,0,0,0,0,0,0,1,0,1,0,0,0,0,0,0,0,1,1,0,0,0,4,1,5
135,"Villa de Tezontepec, Hidalgo",19.9143587,-98.80032768,municipio,"Charo, Mich.",0,0,0,4,0,4,0,0,0,0,0,0,0,0,0,0,0,0,0,0,0,0,0,0,0,0,0,0,0,0,0,0,0,0,0,0,4,0,4
143,"Lázaro Cárdenas, Michoacán",17.9594769,-102.198659,municipio,"Emiliano Zapata, Mor.",0,0,0,0,0,0,0,0,0,0,0,0,1,0,1,0,0,0,1,0,1,0,0,0,2,0,2,0,0,0,0,0,0,0,0,0,4,0,4
153,"Xochitepec, Morelos",18.7831747,-99.2308448,municipio,"Aramberri, NL",3,0,3,0,0,0,0,0,0,0,0,0,1,0,1,0,0,0,0,0,0,0,0,0,0,0,0,0,0,0,0,0,0,0,0,0,4,0,4
158,"Aramberri, Nuevo León",24.1028828,-99.8178742,municipio,"El Carmen, NL",0,0,0,0,0,0,0,0,0,0,0,0,0,0,0,4,30,34,0,0,0,0,1,1,0,0,0,0,0,0,0,0,0,0,0,0,4,31,35
195,"San Agustín de las Juntas, Oaxaca",17.005436,-96.7092291,municipio,"San Cristóbal Suchixtlahuaca, Oax.",0,0,0,0,0,0,0,0,0,0,0,0,0,0,0,0,0,0,0,0,0,4,0,4,0,0,0,0,0,0,0,0,0,0,0,0,4,0,4
211,"San Pedro Mixtepec -Dto. 22 -, Oaxaca",16.271111,-96.2825,municipio,"Santa Lucía del Camino, Oax.",1,0,1,0,0,0,2,0,2,0,0,0,0,0,0,0,0,0,0,0,0,0,0,0,1,0,1,0,0,0,0,0,0,0,2,2,4,2,6
271,"Centla, Tabasco",18.3536762,-92.65219864,municipio,"Paraíso, Tab.",0,0,0,0,0,0,0,0,0,0,0,0,1,0,1,1,0,1,0,0,0,2,0,2,0,0,0,0,0,0,0,0,0,0,0,0,4,0,4
304,"Atlangatepec, Tlaxcala",19.530833,-98.208333,municipio,"Hueyotlipan, Tlax.",1,0,1,0,0,0,0,0,0,0,0,0,0,0,0,0,0,0,0,0,0,0,0,0,3,10,13,0,0,0,0,0,0,0,0,0,4,10,14
3,"San Francisco de los Romo, Aguascalientes",22.0746282,-102.2707133,municipio,"San Francisco de los Romo, Ags.",0,0,0,0,0,0,0,0,0,0,0,0,0,0,0,0,0,0,1,5,6,0,0,0,2,7,9,0,3,3,0,0,0,0,0,0,3,15,18
38,"Mapastepec, Chiapas",15.43981,-92.898367,municipio,"La Trinitaria, Chis.",2,0,2,0,0,0,0,0,0,0,0,0,0,2,2,1,2,3,0,0,0,0,6,6,0,0,0,0,4,4,0,0,0,0,0,0,3,14,17
82,"Mapimí, Durango",25.8337403,-103.8480216,municipio,"Cuautitlán, Méx.",0,0,0,0,0,0,0,0,0,0,0,0,1,0,1,1,0,1,0,0,0,0,0,0,1,0,1,0,0,0,0,0,0,0,0,0,3,0,3
88,"Cuautitlán, México",19.6531356,-99.2145002,municipio,"Ocoyoacac, Méx.",0,0,0,0,0,0,0,0,0,0,0,0,0,0,0,0,0,0,0,0,0,0,0,0,1,0,1,0,0,0,0,0,0,2,0,2,3,0,3
101,"Zumpango, México",19.81293675,-99.08180953,municipio,"León, Gto.",2,0,2,0,0,0,0,0,0,1,0,1,0,0,0,0,0,0,0,0,0,0,0,0,0,0,0,0,0,0,0,0,0,0,0,0,3,0,3
115,"Chilpancingo de los Bravo, Guerrero",17.5542149,-99.5048416,municipio,"Chapulhuacán, Hgo.",0,0,0,3,15,18,0,0,0,0,0,0,0,0,0,0,0,0,0,0,0,0,0,0,0,0,0,0,0,0,0,0,0,0,0,0,3,15,18
144,"Morelia, Michoacán",19.7027116,-101.1923818,municipio,"Jantetelco, Mor.",0,0,0,0,0,0,2,0,2,0,0,0,0,0,0,0,0,0,1,0,1,0,0,0,0,0,0,0,0,0,0,0,0,0,0,0,3,0,3
148,"Emiliano Zapata, Morelos",18.83995,-99.1870274,municipio,"Xochitepec, Mor.",0,0,0,0,0,0,0,0,0,0,0,0,0,0,0,1,0,1,0,0,0,1,0,1,0,0,0,0,0,0,0,0,0,1,0,1,3,0,3
205,"San Juan Bautista Tuxtepec, Oaxaca",18.0874632,-96.1227767,municipio,"San Pedro Mixtepec -Dto. 22 -, Oax.",0,0,0,1,0,1,1,0,1,0,0,0,0,0,0,0,0,0,0,0,0,0,0,0,1,0,1,0,0,0,0,0,0,0,0,0,3,0,3
280,"Tacotalpa, Tabasco",17.5952197,-92.8253388,municipio,"El Mante, Tamps.",0,0,0,3,3,6,0,0,0,0,0,0,0,0,0,0,0,0,0,0,0,0,0,0,0,0,0,0,0,0,0,0,0,0,0,0,3,3,6
281,"Teapa, Tabasco",17.5566526,-92.9480504,municipio,"González, Tamps.",0,0,0,2,2,4,0,0,0,0,0,0,1,3,4,0,0,0,0,0,0,0,0,0,0,0,0,0,0,0,0,0,0,0,0,0,3,5,8
315,"Papalotla de Xicohténcatl, Tlaxcala",19.168611,-98.203889,municipio,"Santa Cruz Quilehtla, Tlax.",0,0,0,0,0,0,0,0,0,0,0,0,0,0,0,0,0,0,0,0,0,3,0,3,0,6,6,0,0,0,0,0,0,0,0,0,3,6,9
318,"San Pablo del Monte, Tlaxcala",19.12695185,-98.16539572,municipio,"Tlaxcala, Tlax.",0,0,0,0,0,0,1,0,1,0,0,0,0,0,0,1,0,1,0,0,0,0,0,0,1,0,1,0,0,0,0,0,0,0,0,0,3,0,3
370,"Soledad de Doblado, Veracruz",19.0452067,-96.4233756,municipio,"Soledad de Doblado, Ver.",3,0,3,0,0,0,0,0,0,0,0,0,0,0,0,0,0,0,0,0,0,0,0,0,0,0,0,0,0,0,0,0,0,0,0,0,3,0,3
379,"Villa Aldama, Veracruz",19.6489805,-97.2228382,municipio,"Villa Aldama, Ver.",0,0,0,0,0,0,0,0,0,3,0,3,0,0,0,0,0,0,0,0,0,0,0,0,0,0,0,0,0,0,0,0,0,0,0,0,3,0,3
383,"Progreso, Yucatán",21.2822136,-89.6636637,municipio,"Progreso, Yuc.",0,0,0,0,0,0,0,0,0,0,0,0,0,0,0,0,0,0,0,0,0,0,0,0,0,0,0,3,0,3,0,0,0,0,0,0,3,0,3
386,"Jerez, Zacatecas",22.7105933,-103.0014726,municipio,"Jerez, Zac.",0,0,0,0,0,0,0,0,0,0,0,0,0,0,0,0,0,0,0,0,0,1,0,1,1,0,1,1,0,1,0,0,0,0,0,0,3,0,3
22,"Arriaga, Chiapas",16.2344709,-93.9008414,municipio,"Acacoyagua, Chis.",0,0,0,0,0,0,0,0,0,0,0,0,0,0,0,2,0,2,0,0,0,0,0,0,0,0,0,0,0,0,0,0,0,0,0,0,2,0,2
58,"Villaflores, Chiapas",16.37550225,-93.3589334,municipio,"Villaflores, Chis.",0,0,0,0,0,0,0,0,0,0,0,0,0,0,0,0,0,0,0,0,0,0,0,0,1,0,1,1,0,1,0,0,0,0,0,0,2,0,2
66,"Iztapalapa, Ciudad de México",19.3591195,-99.0929294,municipio,"Venustiano Carranza, CDMX",0,148,148,0,156,156,0,217,217,1,110,111,0,26,26,0,124,124,1,158,159,0,275,275,0,190,190,0,175,175,0,109,109,0,138,138,2,1826,1828
74,"Piedras Negras, Coahuila",28.7041725,-100.5148362,municipio,"Villa de Álvarez, Col.",0,0,0,0,0,0,1,0,1,0,0,0,0,0,0,0,0,0,0,0,0,0,0,0,0,0,0,1,0,1,0,0,0,0,0,0,2,0,2
89,"Ecatepec de Morelos, México",19.6043981,-98.988231,municipio,"Tecámac, Méx.",0,0,0,0,0,0,0,0,0,2,0,2,0,0,0,0,0,0,0,0,0,0,0,0,0,0,0,0,0,0,0,0,0,0,0,0,2,0,2
94,"Ocoyoacac, México",19.2587373,-99.41777786,municipio,"Xalatlaco, Méx.",0,0,0,0,0,0,0,0,0,0,0,0,0,0,0,0,0,0,2,0,2,0,0,0,0,0,0,0,0,0,0,0,0,0,0,0,2,0,2
95,"Tecámac, México",19.7115011,-98.968354,municipio,"Zumpango, Méx.",0,13,13,0,9,9,0,15,15,0,0,0,0,14,14,0,0,0,0,12,12,0,22,22,0,22,22,2,22,24,0,13,13,0,11,11,2,153,155
111,"San Luis de la Paz, Guanajuato",21.2970466,-100.516269,municipio,"Actopan, Hgo.",0,0,0,0,0,0,0,0,0,1,0,1,0,0,0,0,0,0,0,0,0,1,0,1,0,0,0,0,0,0,0,0,0,0,0,0,2,0,2
114,"Azoyú, Guerrero",16.730833,-98.600833,municipio,"Atitalaquia, Hgo.",0,0,0,2,0,2,0,0,0,0,0,0,0,0,0,0,0,0,0,0,0,0,0,0,0,0,0,0,0,0,0,0,0,0,0,0,2,0,2
149,"Jantetelco, Morelos",18.7167516,-98.7766172,municipio,"Bahía de Banderas, Nay.",0,0,0,0,0,0,0,0,0,0,0,0,0,0,0,0,0,0,0,0,0,0,0,0,1,0,1,0,0,0,0,0,0,1,0,1,2,0,2
190,"Juchitán de Zaragoza, Oaxaca",16.413329,-94.91187946,municipio,"San Agustín de las Juntas, Oax.",1,0,1,0,0,0,0,0,0,0,0,0,0,0,0,0,0,0,0,0,0,0,0,0,0,0,0,1,0,1,0,0,0,0,0,0,2,0,2
226,"Santiago Niltepec, Oaxaca",16.5614134,-94.6131085,municipio,"Villa de Etla, Oax.",0,0,0,0,0,0,0,0,0,0,0,0,0,0,0,0,0,0,0,0,0,2,0,2,0,0,0,0,0,0,0,0,0,0,0,0,2,0,2
227,"Santiago Pinotepa Nacional, Oaxaca",16.3406076,-98.0536701,municipio,"Villa de Tamazulápam del Progreso, Oax.",2,0,2,0,0,0,0,0,0,0,0,0,0,0,0,0,0,0,0,0,0,0,0,0,0,0,0,0,0,0,0,0,0,0,0,0,2,0,2
230,"Tlacolula de Matamoros, Oaxaca",16.9314623,-96.46110746,municipio,"Villa Tejúpam de la Unión, Oax.",0,0,0,2,0,2,0,0,0,0,0,0,0,0,0,0,0,0,0,0,0,0,0,0,0,0,0,0,0,0,0,0,0,0,0,0,2,0,2
307,"Cuapiaxtla, Tlaxcala",19.2961777,-97.768912,municipio,"Muñoz de Domingo Arenas, Tlax.",0,0,0,0,0,0,2,0,2,0,0,0,0,0,0,0,0,0,0,0,0,0,0,0,0,0,0,0,0,0,0,0,0,0,0,0,2,0,2
308,"Huamantla, Tlaxcala",19.313427,-97.9230236,municipio,"Nanacamilpa de Mariano Arista, Tlax.",0,0,0,0,0,0,1,0,1,0,0,0,0,0,0,0,0,0,0,0,0,0,0,0,0,0,0,1,0,1,0,0,0,0,0,0,2,0,2
310,"Ixtacuixtla de Mariano Matamoros, Tlaxcala",19.34670365,-98.3781581,municipio,"Papalotla de Xicohténcatl, Tlax.",0,0,0,0,0,0,0,0,0,0,0,0,0,0,0,0,0,0,1,0,1,0,0,0,1,0,1,0,0,0,0,0,0,0,0,0,2,0,2
313,"Nanacamilpa de Mariano Arista, Tlaxcala",19.5080315,-98.54324076,municipio,"San Pablo del Monte, Tlax.",0,0,0,0,0,0,0,0,0,2,0,2,0,0,0,0,0,0,0,0,0,0,0,0,0,0,0,0,0,0,0,0,0,0,0,0,2,0,2
316,"San Jerónimo Zacualpan, Tlaxcala",19.240833,-98.261389,municipio,"Santa Cruz Tlaxcala, Tlax.",0,0,0,1,0,1,0,0,0,0,0,0,0,0,0,0,0,0,0,0,0,0,0,0,0,0,0,0,0,0,0,0,0,1,0,1,2,0,2
14,"Campeche, Campeche",19,-90.5,municipio,"Calkiní, Camp.",0,0,0,0,0,0,0,0,0,0,0,0,0,0,0,0,0,0,0,0,0,1,0,1,0,0,0,0,0,0,0,0,0,0,0,0,1,0,1
48,"Siltepec, Chiapas",15.5561492,-92.3226035,municipio,"Siltepec, Chis.",0,0,0,0,0,0,0,0,0,0,0,0,0,0,0,1,0,1,0,0,0,0,0,0,0,0,0,0,0,0,0,0,0,0,0,0,1,0,1
78,"Manzanillo, Colima",19.0506256,-104.3159957,municipio,"Acambay de Ruíz Castañeda, Méx.",0,0,0,0,0,0,0,0,0,0,0,0,0,0,0,1,0,1,0,0,0,0,0,0,0,0,0,0,0,0,0,0,0,0,0,0,1,0,1
86,"Atlacomulco, México",19.81591915,-99.86811932,municipio,"Naucalpan de Juárez, Méx.",0,0,0,0,0,0,0,0,0,0,0,0,0,0,0,0,0,0,0,0,0,0,0,0,0,0,0,1,0,1,0,0,0,0,0,0,1,0,1
96,"Tepotzotlán, México",19.7173392,-99.2230683,municipio,"Apaseo el Alto, Gto.",0,0,0,0,0,0,0,0,0,0,0,0,0,0,0,1,0,1,0,0,0,0,0,0,0,0,0,0,0,0,0,0,0,0,0,0,1,0,1
112,"San Miguel de Allende, Guanajuato",20.9142238,-100.743784,municipio,"Alfajayucan, Hgo.",0,0,0,0,0,0,0,0,0,0,0,0,0,0,0,0,0,0,1,0,1,0,0,0,0,0,0,0,0,0,0,0,0,0,0,0,1,0,1
116,"San Marcos, Guerrero",16.85734375,-99.39034185,municipio,"Emiliano Zapata, Hgo.",0,0,0,0,0,0,0,0,0,0,0,0,0,0,0,0,0,0,0,0,0,1,0,1,0,0,0,0,0,0,0,0,0,0,0,0,1,0,1
117,"Zihuatanejo de Azueta, Guerrero",17.80789995,-101.4969524,municipio,"Epazoyucan, Hgo.",0,0,0,1,0,1,0,0,0,0,0,0,0,0,0,0,0,0,0,0,0,0,0,0,0,0,0,0,0,0,0,0,0,0,0,0,1,0,1
118,"Actopan, Hidalgo",20.2687373,-98.9431476,municipio,"Huasca de Ocampo, Hgo.",0,0,0,0,0,0,0,0,0,0,0,0,0,0,0,0,0,0,0,0,0,1,0,1,0,0,0,0,0,0,0,0,0,0,0,0,1,0,1
119,"Alfajayucan, Hidalgo",20.410277,-99.40315344,municipio,"Ixmiquilpan, Hgo.",0,0,0,0,0,0,0,0,0,1,0,1,0,0,0,0,0,0,0,0,0,0,0,0,0,0,0,0,0,0,0,0,0,0,0,0,1,0,1
128,"Pachuca de Soto, Hidalgo",20.1165413,-98.7413535,municipio,"El Salto, Jal.",0,0,0,0,0,0,0,0,0,1,0,1,0,0,0,0,0,0,0,0,0,0,0,0,0,0,0,0,0,0,0,0,0,0,0,0,1,0,1
131,"Tizayuca, Hidalgo",19.841245,-98.9815648,municipio,"Zapotlán el Grande, Jal.",0,0,0,0,0,0,0,0,0,1,0,1,0,0,0,0,0,0,0,0,0,0,0,0,0,0,0,0,0,0,0,0,0,0,0,0,1,0,1
134,"Tulancingo de Bravo, Hidalgo",20.0792094,-98.3475328,municipio,"Buenavista, Mich.",0,0,0,0,0,0,0,0,0,0,0,0,0,0,0,0,0,0,0,0,0,0,0,0,0,0,0,1,0,1,0,0,0,0,0,0,1,0,1
136,"El Salto, Jalisco",20.5196964,-103.1813141,municipio,"Cuitzeo, Mich.",0,0,0,0,0,0,0,0,0,0,0,0,0,0,0,0,0,0,0,0,0,0,0,0,0,0,0,1,0,1,0,0,0,0,0,0,1,0,1
137,"Guadalajara, Jalisco",20.6720375,-103.338396,municipio,"Lázaro Cárdenas, Mich.",1,0,1,0,0,0,0,0,0,0,0,0,0,0,0,0,0,0,0,0,0,0,0,0,0,0,0,0,0,0,0,0,0,0,0,0,1,0,1
139,"Zapotlán el Grande, Jalisco",19.6973465,-103.510648,municipio,"Uruapan, Mich.",0,0,0,0,0,0,0,0,0,0,0,0,1,0,1,0,0,0,0,0,0,0,0,0,0,0,0,0,0,0,0,0,0,0,0,0,1,0,1
141,"Buenavista, Michoacán",19.21451245,-102.555158,municipio,"Cuautla, Mor.",0,0,0,0,0,0,0,0,0,0,0,0,0,0,0,0,0,0,1,0,1,0,0,0,0,0,0,0,0,0,0,0,0,0,0,0,1,0,1
147,"Cuernavaca, Morelos",18.9218274,-99.2342282,municipio,"Tepoztlán, Mor.",0,0,0,1,0,1,0,0,0,0,0,0,0,0,0,0,0,0,0,0,0,0,0,0,0,0,0,0,0,0,0,0,0,0,0,0,1,0,1
167,"General Escobedo, Nuevo León",25.808517,-100.3224334,municipio,"Linares, NL",0,0,0,0,0,0,0,0,0,0,0,0,0,0,0,0,0,0,0,0,0,0,12,12,1,0,1,0,0,0,0,6,6,0,0,0,1,18,19
170,"Hualahuises, Nuevo León",24.8838044,-99.6739794,municipio,"Montemorelos, NL",0,0,0,0,0,0,1,0,1,0,0,0,0,0,0,0,0,0,0,0,0,0,0,0,0,0,0,0,0,0,0,0,0,0,0,0,1,0,1
176,"Monterrey, Nuevo León",25.6802019,-100.315258,municipio,"San Pedro Garza García, NL",1,0,1,0,0,0,0,0,0,0,0,0,0,0,0,0,0,0,0,0,0,0,0,0,0,0,0,0,0,0,0,0,0,0,0,0,1,0,1
192,"Miahuatlán de Porfirio Díaz, Oaxaca",16.3610815,-96.58505785,municipio,"San Antonio de la Cal, Oax.",0,0,0,0,0,0,0,0,0,0,0,0,0,0,0,0,0,0,0,0,0,0,0,0,0,0,0,1,0,1,0,0,0,0,0,0,1,0,1
204,"San José Tenango, Oaxaca",18.15,-96.716667,municipio,"San Pedro Ixtlahuaca, Oax.",0,0,0,0,0,0,0,0,0,0,0,0,0,0,0,0,0,0,0,0,0,0,0,0,1,0,1,0,0,0,0,0,0,0,0,0,1,0,1
209,"San Pablo Huitzo, Oaxaca",17.2777969,-96.8866692,municipio,"San Sebastián Tutla, Oax.",0,0,0,0,0,0,0,0,0,0,0,0,0,0,0,1,0,1,0,0,0,0,0,0,0,0,0,0,2,2,0,0,0,0,0,0,1,2,3
218,"Santa María Atzompa, Oaxaca",17.1011053,-96.7777739,municipio,"Santa María Tonameca, Oax.",0,0,0,1,0,1,0,0,0,0,0,0,0,0,0,0,0,0,0,0,0,0,0,0,0,0,0,0,0,0,0,0,0,0,0,0,1,0,1
219,"Santa María Coyotepec, Oaxaca",16.9716988,-96.71080424,municipio,"Santiago Juxtlahuaca, Oax.",0,0,0,0,0,0,0,0,0,0,0,0,0,0,0,0,0,0,0,0,0,1,0,1,0,0,0,0,0,0,0,0,0,0,0,0,1,0,1
225,"Santiago Juxtlahuaca, Oaxaca",17.334443,-98.010574,municipio,"Trinidad Zaachila, Oax.",0,0,0,0,0,0,0,0,0,0,0,0,0,0,0,0,0,0,0,0,0,0,0,0,0,0,0,0,0,0,1,0,1,0,0,0,1,0,1
244,"Isla Mujeres, Quintana Roo",21.2371906,-86.7350001,municipio,"Ahome, Sin.",0,0,0,0,0,0,0,0,0,0,0,0,0,0,0,0,0,0,0,0,0,0,0,0,0,2,2,0,0,0,0,0,0,1,0,1,1,2,3
247,"Tulum, Quintana Roo",20.1692965,-87.44954813,municipio,"Guasave, Sin.",0,0,0,0,0,0,0,0,0,0,0,0,0,0,0,0,0,0,0,0,0,0,0,0,0,0,0,0,0,0,1,0,1,0,0,0,1,0,1
259,"General Plutarco Elías Calles, Sonora",31.6949837,-112.7117489,municipio,"Puerto Peñasco, Son.",0,0,0,0,0,0,0,0,0,0,0,0,1,0,1,0,0,0,0,0,0,0,0,0,0,0,0,0,0,0,0,0,0,0,0,0,1,0,1
285,"Antiguo Morelos, Tamaulipas",22.56570125,-99.08713716,municipio,"Jiménez, Tamps.",0,0,0,0,0,0,0,0,0,0,0,0,0,0,0,0,0,0,0,0,0,0,0,0,1,0,1,0,0,0,0,0,0,0,0,0,1,0,1
296,"Río Bravo, Tamaulipas",25.988981,-98.0945766,municipio,"Amaxac de Guerrero, Tlax.",0,0,0,0,0,0,0,0,0,0,0,0,0,0,0,0,0,0,0,0,0,0,0,0,0,0,0,0,0,0,1,0,1,0,0,0,1,0,1
311,"Ixtenco, Tlaxcala",19.2518725,-97.8947561,municipio,"San Jerónimo Zacualpan, Tlax.",0,0,0,0,0,0,0,0,0,0,0,0,0,0,0,0,0,0,0,0,0,1,3,4,0,0,0,0,0,0,0,0,0,0,0,0,1,3,4
312,"Muñoz de Domingo Arenas, Tlaxcala",19.474722,-98.208056,municipio,"San Juan Huactzinco, Tlax.",0,0,0,0,0,0,0,0,0,0,0,0,0,0,0,0,0,0,0,0,0,0,0,0,0,0,0,0,0,0,1,0,1,0,0,0,1,0,1
329,"Acayucan, Veracruz",17.9487862,-94.9145752,municipio,"Álamo Temapache, Ver.",0,0,0,0,0,0,0,0,0,0,0,0,0,0,0,0,0,0,1,2,3,0,0,0,0,0,0,0,0,0,0,0,0,0,0,0,1,2,3
331,"Álamo Temapache, Veracruz",20.9951932,-97.75578419,municipio,"Amatlán de los Reyes, Ver.",0,0,0,0,0,0,0,0,0,1,0,1,0,0,0,0,0,0,0,0,0,0,16,16,0,0,0,0,0,0,0,0,0,0,0,0,1,16,17
336,"Carlos A. Carrillo, Veracruz",18.32836115,-95.71540338,municipio,"Coatepec, Ver.",0,0,0,1,0,1,0,0,0,0,0,0,0,0,0,0,0,0,0,0,0,0,0,0,0,0,0,0,0,0,0,0,0,0,0,0,1,0,1
341,"Cosamaloapan de Carpio, Veracruz",18.28167395,-95.96435747,municipio,"Cotaxtla, Ver.",1,0,1,0,0,0,0,0,0,0,0,0,0,0,0,0,0,0,0,138,138,0,0,0,0,0,0,0,0,0,0,0,0,0,5,5,1,143,144
348,"Ixtaczoquitlán, Veracruz",18.85134015,-97.02710712,municipio,"Ixtaczoquitlán, Ver.",0,0,0,1,0,1,0,0,0,0,0,0,0,0,0,0,0,0,0,0,0,0,1,1,0,0,0,0,0,0,0,0,0,0,0,0,1,1,2
364,"Poza Rica de Hidalgo, Veracruz",20.53765745,-97.4451248,municipio,"Poza Rica de Hidalgo, Ver.",0,0,0,0,0,0,0,0,0,1,0,1,0,0,0,0,11,11,0,0,0,0,87,87,0,21,21,0,2,2,0,7,7,0,0,0,1,128,129
8,"Tecate, Baja California",32.5653831,-116.6298787,municipio,"San Quintín, BC",0,0,0,0,0,0,0,0,0,0,0,0,0,3,3,0,0,0,0,0,0,0,0,0,0,0,0,0,0,0,0,0,0,0,0,0,0,3,3
27,"Chicomuselo, Chiapas",15.7935524,-92.4192662,municipio,"Chanal, Chis.",0,0,0,0,0,0,0,0,0,0,0,0,0,0,0,0,1,1,0,0,0,0,0,0,0,0,0,0,0,0,0,0,0,0,0,0,0,1,1
51,"Teopisca, Chiapas",16.5420839,-92.4736561,municipio,"Teopisca, Chis.",0,0,0,0,0,0,0,0,0,0,0,0,0,0,0,0,0,0,0,0,0,0,1,1,0,0,0,0,0,0,0,0,0,0,0,0,0,1,1
63,"Ojinaga, Chihuahua",29.5654282,-104.4128523,municipio,"Coyoacán, CDMX",0,0,0,0,0,0,0,0,0,0,0,0,0,0,0,0,0,0,0,0,0,0,0,0,0,0,0,0,1,1,0,0,0,0,0,0,0,1,1
64,"Coyoacán, Ciudad de México",19.349885,-99.1623599,municipio,"Gustavo A. Madero, CDMX",0,0,0,0,26,26,0,58,58,0,119,119,0,16,16,0,104,104,0,160,160,0,112,112,0,106,106,0,139,139,0,89,89,0,66,66,0,995,995
85,"Apaxco, México",19.9807399,-99.15181011,municipio,"Ixtapaluca, Méx.",0,0,0,0,0,0,0,0,0,0,0,0,0,0,0,0,0,0,0,11,11,0,0,0,0,0,0,0,0,0,0,0,0,0,0,0,0,11,11
132,"Tolcayuca, Hidalgo",19.956667,-98.920278,municipio,"Álvaro Obregón, Mich.",0,0,0,0,0,0,0,0,0,0,0,0,0,1,1,0,0,0,0,0,0,0,0,0,0,0,0,0,0,0,0,0,0,0,0,0,0,1,1
133,"Tula de Allende, Hidalgo",20.0489487,-99.37295616,municipio,"Apatzingán, Mich.",0,0,0,0,1,1,0,0,0,0,0,0,0,0,0,0,0,0,0,0,0,0,0,0,0,0,0,0,0,0,0,0,0,0,0,0,0,1,1
168,"General Zuazua, Nuevo León",25.8953873,-100.1078021,municipio,"Los Ramones, NL",0,0,0,0,0,0,0,0,0,0,0,0,0,0,0,0,0,0,0,0,0,0,0,0,0,0,0,0,7,7,0,0,0,0,0,0,0,7,7
172,"Linares, Nuevo León",24.8596282,-99.5684539,municipio,"Parás, NL",0,0,0,0,0,0,0,0,0,0,0,0,0,0,0,0,0,0,0,0,0,0,0,0,0,0,0,0,13,13,0,0,0,0,0,0,0,13,13
182,"Santa Catarina, Nuevo León",25.6745052,-100.4616371,municipio,"Concepción Buenavista, Oax.",0,0,0,0,0,0,0,0,0,0,0,0,0,0,0,0,0,0,0,0,0,0,0,0,0,25,25,0,0,0,0,0,0,0,0,0,0,25,25
194,"Salina Cruz, Oaxaca",16.1825,-95.195833,municipio,"San Bartolo Soyaltepec, Oax.",0,0,0,0,0,0,0,0,0,0,0,0,0,0,0,0,0,0,0,0,0,0,0,0,0,0,0,0,36,36,0,0,0,0,0,0,0,36,36
199,"San Bartolo Soyaltepec, Oaxaca",17.57706925,-97.31194366,municipio,"San José Tenango, Oax.",0,0,0,0,6,6,0,0,0,0,0,0,0,0,0,0,0,0,0,0,0,0,109,109,0,0,0,0,0,0,0,0,0,0,0,0,0,115,115
201,"San Dionisio Ocotepec, Oaxaca",16.7975187,-96.3960971,municipio,"San Lorenzo Cacaotepec, Oax.",0,0,0,0,0,0,0,0,0,0,2,2,0,0,0,0,0,0,0,0,0,0,0,0,0,0,0,0,0,0,0,0,0,0,0,0,0,2,2
212,"San Pedro Pochutla, Oaxaca",15.744444,-96.465278,municipio,"Santa María Atzompa, Oax.",0,0,0,0,0,0,0,0,0,0,0,0,0,4,4,0,0,0,0,0,0,0,0,0,0,0,0,0,0,0,0,0,0,0,0,0,0,4,4
214,"San Pedro Totolápam, Oaxaca",15.8659835,-97.0043148,municipio,"Santa María del Tule, Oax.",0,0,0,0,0,0,0,0,0,0,0,0,0,0,0,0,0,0,0,0,0,0,0,0,0,1,1,0,0,0,0,0,0,0,0,0,0,1,1
232,"Villa de Etla, Oaxaca",17.2057678,-96.7981939,municipio,"Colón, Qro.",0,0,0,0,0,0,0,0,0,0,0,0,0,0,0,0,0,0,0,0,0,0,16,16,0,0,0,0,0,0,0,0,0,0,0,0,0,16,16
241,"Bacalar, Quintana Roo",18.6782559,-88.3922556,municipio,"Tulum, Q. Roo",0,0,0,0,0,0,0,0,0,0,0,0,0,0,0,0,0,0,0,13,13,0,0,0,0,0,0,0,0,0,0,0,0,0,0,0,0,13,13
256,"Altar, Sonora",30.7170323,-111.8380038,municipio,"Imuris, Son.",0,0,0,0,0,0,0,0,0,0,0,0,0,0,0,0,0,0,0,0,0,0,0,0,0,0,0,0,0,0,0,0,0,0,7,7,0,7,7
317,"San Juan Huactzinco, Tlaxcala",19.2329326,-98.2520375,municipio,"Tetla de la Solidaridad, Tlax.",0,0,0,0,0,0,0,0,0,0,0,0,0,0,0,0,0,0,0,0,0,0,0,0,0,0,0,0,0,0,0,0,0,0,2,2,0,2,2
326,"Xaloztoc, Tlaxcala",19.403611,-98.048611,municipio,"Ziltlaltépec de Trinidad Sánchez Santos, Tlax.",0,0,0,0,0,0,0,0,0,0,0,0,0,0,0,0,0,0,0,18,18,0,0,0,0,0,0,0,0,0,0,0,0,0,0,0,0,18,18
328,"Zacatelco, Tlaxcala",19.215833,-98.239722,municipio,"Agua Dulce, Ver.",0,0,0,0,0,0,0,0,0,0,0,0,0,0,0,0,0,0,0,0,0,0,0,0,0,20,20,0,0,0,0,0,0,0,0,0,0,20,20
330,"Agua Dulce, Veracruz",18.0899541,-94.16236305,municipio,"Alvarado, Ver.",0,0,0,0,0,0,0,0,0,0,0,0,0,4,4,0,30,30,0,4,4,0,0,0,0,3,3,0,5,5,0,3,3,0,10,10,0,59,59
332,"Alvarado, Veracruz",18.82874235,-95.92385401,municipio,"Angel R. Cabada, Ver.",0,0,0,0,0,0,0,0,0,0,0,0,0,0,0,0,0,0,0,0,0,0,0,0,0,0,0,0,0,0,0,17,17,0,4,4,0,21,21
333,"Amatlán de los Reyes, Veracruz",18.87251165,-96.8685724,municipio,"Camerino Z. Mendoza, Ver.",0,0,0,0,0,0,0,0,0,0,0,0,0,0,0,0,126,126,0,0,0,0,0,0,0,0,0,0,0,0,0,0,0,0,0,0,0,126,126
334,"Angel R. Cabada, Veracruz",18.5927238,-95.38616825,municipio,"Carlos A. Carrillo, Ver.",0,1,1,0,0,0,0,0,0,0,0,0,0,0,0,0,0,0,0,0,0,0,0,0,0,0,0,0,0,0,0,0,0,0,0,0,0,1,1
335,"Camerino Z. Mendoza, Veracruz",18.7896308,-97.15993214,municipio,"Carrillo Puerto, Ver.",0,0,0,0,0,0,0,0,0,0,0,0,0,0,0,0,0,0,0,0,0,0,0,0,0,0,0,0,19,19,0,31,31,0,5,5,0,55,55
340,"Córdoba, Veracruz",18.8944704,-96.9352891,municipio,"Cosoleacaque, Ver.",0,3,3,0,3,3,0,0,0,0,0,0,0,4,4,0,0,0,0,10,10,0,0,0,0,0,0,0,0,0,0,0,0,0,0,0,0,20,20
343,"Cotaxtla, Veracruz",18.85765725,-96.35099906,municipio,"Emiliano Zapata, Ver.",0,0,0,0,0,0,0,0,0,0,0,0,0,0,0,0,0,0,0,0,0,0,0,0,0,0,0,0,7,7,0,0,0,0,0,0,0,7,7
345,"Fortín, Veracruz",18.8993309,-96.9982014,municipio,"Gutiérrez Zamora, Ver.",0,9,9,0,0,0,0,0,0,0,0,0,0,0,0,0,0,0,0,0,0,0,0,0,0,0,0,0,0,0,0,0,0,0,0,0,0,9,9
347,"Isla, Veracruz",18.0276212,-95.5281332,municipio,"Ixhuatlán del Sureste, Ver.",0,2,2,0,0,0,0,0,0,0,0,0,0,0,0,0,0,0,0,0,0,0,0,0,0,0,0,0,0,0,0,0,0,0,0,0,0,2,2
349,"Jesús Carranza, Veracruz",17.38793115,-94.90949731,municipio,"Jesús Carranza, Ver.",0,80,80,0,0,0,0,0,0,0,17,17,0,188,188,0,204,204,0,333,333,0,987,987,0,1065,1065,0,1095,1095,0,928,928,0,498,498,0,5395,5395
350,"Juan Rodríguez Clara, Veracruz",17.97320895,-95.34412799,municipio,"Juan Rodríguez Clara, Ver.",0,4,4,0,1,1,0,0,0,0,0,0,0,0,0,0,0,0,0,0,0,0,3,3,0,0,0,0,0,0,0,0,0,0,0,0,0,8,8
351,"La Antigua, Veracruz",19.3176799,-96.31864093,municipio,"La Antigua, Ver.",0,0,0,0,0,0,0,0,0,0,0,0,0,0,0,0,0,0,0,160,160,0,0,0,0,0,0,0,0,0,0,0,0,0,0,0,0,160,160
353,"Martínez de la Torre, Veracruz",20.1197165,-97.04616468,municipio,"Martínez de la Torre, Ver.",0,0,0,0,0,0,0,0,0,0,0,0,0,0,0,0,0,0,0,0,0,0,0,0,0,15,15,0,0,0,0,0,0,0,0,0,0,15,15
354,"Medellín de Bravo, Veracruz",19.0404677,-96.1442918,municipio,"Medellín de Bravo, Ver.",0,0,0,0,0,0,0,0,0,0,0,0,0,0,0,0,0,0,0,27,27,0,0,0,0,0,0,0,0,0,0,0,0,0,0,0,0,27,27
355,"Minatitlán, Veracruz",17.992773,-94.5567103,municipio,"Minatitlán, Ver.",0,0,0,0,0,0,0,0,0,0,4,4,0,0,0,0,3,3,0,0,0,0,0,0,0,1,1,0,0,0,0,2,2,0,0,0,0,10,10
356,"Moloacán, Veracruz",17.9926405,-94.28232907,municipio,"Moloacán, Ver.",0,94,94,0,96,96,0,0,0,0,76,76,0,303,303,0,322,322,0,325,325,0,449,449,0,845,845,0,782,782,0,477,477,0,433,433,0,4202,4202
357,"Naranjos Amatlán, Veracruz",21.3093326,-97.6760013,municipio,"Naranjos Amatlán, Ver.",0,0,0,0,0,0,0,0,0,0,0,0,0,0,0,0,0,0,0,0,0,0,21,21,0,0,0,0,0,0,0,0,0,0,0,0,0,21,21
358,"Nogales, Veracruz",18.8226013,-97.1627659,municipio,"Nogales, Ver.",0,0,0,0,0,0,0,0,0,0,0,0,0,6,6,0,0,0,0,0,0,0,0,0,0,0,0,0,0,0,0,0,0,0,0,0,0,6,6
361,"Pánuco, Veracruz",22.08052495,-98.23295792,municipio,"Pánuco, Ver.",0,0,0,0,0,0,0,0,0,0,0,0,0,8,8,0,0,0,0,0,0,0,0,0,0,0,0,0,0,0,0,0,0,0,0,0,0,8,8
363,"Perote, Veracruz",19.51086405,-97.26853448,municipio,"Perote, Ver.",0,0,0,0,0,0,0,0,0,0,0,0,0,0,0,0,2,2,0,0,0,0,0,0,0,0,0,0,0,0,0,0,0,0,0,0,0,2,2
366,"Río Blanco, Veracruz",18.84522475,-97.15229389,municipio,"Río Blanco, Ver.",0,0,0,0,0,0,0,0,0,0,0,0,0,8,8,0,9,9,0,0,0,0,0,0,0,0,0,0,0,0,0,33,33,0,0,0,0,50,50
368,"San Juan Evangelista, Veracruz",17.76252635,-95.23042939,municipio,"San Juan Evangelista, Ver.",0,0,0,0,1,1,0,0,0,0,0,0,0,0,0,0,0,0,0,0,0,0,0,0,0,0,0,0,0,0,0,0,0,0,0,0,0,1,1
369,"Sayula de Alemán, Veracruz",17.74768255,-94.95439752,municipio,"Sayula de Alemán, Ver.",0,604,604,0,609,609,0,0,0,0,387,387,0,1058,1058,0,356,356,0,737,737,0,1637,1637,0,1601,1601,0,1128,1128,0,762,762,0,432,432,0,9311,9311
371,"Tecolutla, Veracruz",20.41847865,-96.99363704,municipio,"Tecolutla, Ver.",0,0,0,0,0,0,0,0,0,0,0,0,0,2,2,0,0,0,0,0,0,0,0,0,0,0,0,0,0,0,0,0,0,0,0,0,0,2,2
372,"Texistepec, Veracruz",17.894167,-94.816389,municipio,"Texistepec, Ver.",0,0,0,0,0,0,0,0,0,0,0,0,0,0,0,0,0,0,0,0,0,0,0,0,0,0,0,0,0,0,0,7,7,0,0,0,0,7,7
373,"Tezonapa, Veracruz",18.5587309,-96.78234115,municipio,"Tezonapa, Ver.",0,0,0,0,0,0,0,0,0,0,0,0,0,0,0,0,0,0,0,0,0,0,0,0,0,0,0,0,0,0,0,0,0,0,6,6,0,6,6
376,"Tres Valles, Veracruz",18.2921576,-96.16641197,municipio,"Tres Valles, Ver.",0,0,0,0,0,0,0,0,0,0,0,0,0,0,0,0,0,0,0,0,0,0,0,0,0,0,0,0,0,0,0,0,0,0,2,2,0,2,2
381,"Yanga, Veracruz",18.8313634,-96.7992608,municipio,"Yanga, Ver.",0,0,0,0,0,0,0,0,0,0,0,0,0,0,0,0,0,0,0,0,0,0,0,0,0,0,0,0,62,62,0,0,0,0,0,0,0,62,62
