,ciudad,latitude,longitude,etiqueta,entidad federativa / municipio,presentados 1,canalizados 1,subtotal 1,presentados 2,canalizados 2,subtotal 2,presentados 3,canalizados 3,subtotal 3,presentados 4,canalizados 4,subtotal 4,presentados 5,canalizados 5,subtotal 5,presentados 6,canalizados 6,subtotal 6,presentados 7,canalizados 7,subtotal 7,presentados 8,canalizados 8,subtotal 8,presentados 9,canalizados 9,subtotal 9,presentados 10,canalizados 10,subtotal 10,presentados 11,canalizados 11,subtotal 11,presentados 12,canalizados 2.1,subtotal 12,presentados total,canalizados total,total
0,"Aguascalientes, Aguascalientes",22.0000001,-102.5000001,municipio,"Aguascalientes, Ags.",0.0,0.0,0.0,0.0,0.0,0.0,14.0,12.0,26.0,1.0,0.0,1.0,0.0,0.0,0.0,0.0,0.0,0.0,8.0,1.0,9.0,5.0,2.0,7.0,0.0,0.0,0.0,1.0,0.0,1.0,0.0,0.0,0.0,0.0,0.0,0.0,29.0,15.0,44.0
1,"Cosío, Aguascalientes",22.3705155,-102.3120085105234,municipio,"Cosío, Ags.",0.0,0.0,0.0,0.0,0.0,0.0,2.0,1.0,3.0,19.0,3.0,22.0,0.0,0.0,0.0,0.0,0.0,0.0,0.0,4.0,4.0,5.0,0.0,5.0,0.0,0.0,0.0,0.0,27.0,27.0,1.0,20.0,21.0,0.0,16.0,16.0,27.0,71.0,98.0
2,"Jesús María, Aguascalientes",21.9345555,-102.46845171651152,municipio,"Jesús María, Ags.",153.0,13.0,166.0,155.0,19.0,174.0,1.0,0.0,1.0,0.0,0.0,0.0,0.0,0.0,0.0,0.0,0.0,0.0,6.0,4.0,10.0,2.0,2.0,4.0,5.0,3.0,8.0,3.0,26.0,29.0,2.0,5.0,7.0,0.0,0.0,0.0,327.0,72.0,399.0
3,"San Francisco de los Romo, Aguascalientes",22.0746282,-102.2707133,municipio,"San Francisco de los Romo, Ags.",0.0,0.0,0.0,0.0,0.0,0.0,0.0,0.0,0.0,0.0,0.0,0.0,0.0,0.0,0.0,0.0,0.0,0.0,1.0,5.0,6.0,0.0,0.0,0.0,2.0,7.0,9.0,0.0,3.0,3.0,0.0,0.0,0.0,0.0,0.0,0.0,3.0,15.0,18.0
4,"Ensenada, Baja California",31.8658887,-116.602983,municipio,"Ensenada, BC",4.0,0.0,4.0,1.0,0.0,1.0,5.0,1.0,6.0,4.0,0.0,4.0,1.0,0.0,1.0,2.0,2.0,4.0,5.0,0.0,5.0,0.0,0.0,0.0,0.0,0.0,0.0,0.0,0.0,0.0,0.0,0.0,0.0,1.0,0.0,1.0,23.0,3.0,26.0
5,"Mexicali, Baja California",32.6405247,-115.474899,municipio,"Mexicali, BC",230.0,0.0,230.0,329.0,29.0,358.0,659.0,153.0,812.0,443.0,112.0,555.0,272.0,104.0,376.0,212.0,80.0,292.0,116.0,144.0,260.0,265.0,305.0,570.0,230.0,474.0,704.0,157.0,329.0,486.0,119.0,262.0,381.0,247.0,396.0,643.0,3279.0,2388.0,5667.0
6,"Playas de Rosarito, Baja California",32.25812915,-116.87330722517584,municipio,"Playas de Rosarito, BC",2.0,0.0,2.0,7.0,0.0,7.0,5.0,0.0,5.0,3.0,0.0,3.0,7.0,0.0,7.0,1.0,0.0,1.0,2.0,0.0,2.0,2.0,0.0,2.0,4.0,0.0,4.0,4.0,0.0,4.0,0.0,0.0,0.0,1.0,0.0,1.0,38.0,0.0,38.0
7,"San Felipe, Baja California",31.0269529,-114.839607,municipio,"San Felipe, BC",0.0,0.0,0.0,0.0,0.0,0.0,1.0,0.0,1.0,0.0,0.0,0.0,1.0,0.0,1.0,0.0,0.0,0.0,0.0,0.0,0.0,0.0,0.0,0.0,0.0,0.0,0.0,2.0,0.0,2.0,1.0,0.0,1.0,0.0,0.0,0.0,5.0,0.0,5.0
8,"Tecate, Baja California",32.5653831,-116.6298787,municipio,"San Quintín, BC",0.0,0.0,0.0,0.0,0.0,0.0,0.0,0.0,0.0,0.0,0.0,0.0,0.0,3.0,3.0,0.0,0.0,0.0,0.0,0.0,0.0,0.0,0.0,0.0,0.0,0.0,0.0,0.0,0.0,0.0,0.0,0.0,0.0,0.0,0.0,0.0,0.0,3.0,3.0
9,"Tijuana, Baja California",32.5317397,-117.019529,municipio,"Tecate, BC",2.0,0.0,2.0,0.0,0.0,0.0,43.0,30.0,73.0,2.0,22.0,24.0,109.0,55.0,164.0,38.0,45.0,83.0,40.0,19.0,59.0,29.0,0.0,29.0,0.0,3.0,3.0,79.0,26.0,105.0,70.0,14.0,84.0,90.0,22.0,112.0,502.0,236.0,738.0
10,"La Paz, Baja California Sur",24.1619948,-110.3158532,municipio,"Tijuana, BC",402.0,577.0,979.0,501.0,997.0,1498.0,927.0,1860.0,2787.0,694.0,1527.0,2221.0,717.0,958.0,1675.0,833.0,582.0,1415.0,1287.0,731.0,2018.0,1328.0,1509.0,2837.0,1823.0,1848.0,3671.0,1721.0,1288.0,3009.0,1439.0,996.0,2435.0,1573.0,1287.0,2860.0,13245.0,14160.0,27405.0
11,"Los Cabos, Baja California Sur",23.271848050000003,-109.6897684130629,municipio,"La Paz, BCS",6.0,0.0,6.0,6.0,0.0,6.0,8.0,0.0,8.0,15.0,0.0,15.0,19.0,0.0,19.0,8.0,0.0,8.0,16.0,0.0,16.0,38.0,0.0,38.0,43.0,0.0,43.0,44.0,0.0,44.0,76.0,0.0,76.0,67.0,0.0,67.0,346.0,0.0,346.0
12,"Calakmul, Campeche",18.1073406,-89.80832803981309,municipio,"Los Cabos, BCS",2.0,0.0,2.0,0.0,0.0,0.0,1.0,0.0,1.0,2.0,0.0,2.0,0.0,0.0,0.0,0.0,0.0,0.0,0.0,0.0,0.0,6.0,0.0,6.0,17.0,0.0,17.0,2.0,0.0,2.0,21.0,0.0,21.0,6.0,1.0,7.0,57.0,1.0,58.0
13,"Calkiní, Campeche",20.3695121,-90.0510784,municipio,"Calakmul, Camp.",0.0,0.0,0.0,0.0,0.0,0.0,0.0,0.0,0.0,31.0,13.0,44.0,72.0,41.0,113.0,0.0,0.0,0.0,1.0,0.0,1.0,0.0,0.0,0.0,1.0,0.0,1.0,0.0,6.0,6.0,8.0,6.0,14.0,21.0,11.0,32.0,134.0,77.0,211.0
14,"Campeche, Campeche",19.0,-90.5,municipio,"Calkiní, Camp.",0.0,0.0,0.0,0.0,0.0,0.0,0.0,0.0,0.0,0.0,0.0,0.0,0.0,0.0,0.0,0.0,0.0,0.0,0.0,0.0,0.0,1.0,0.0,1.0,0.0,0.0,0.0,0.0,0.0,0.0,0.0,0.0,0.0,0.0,0.0,0.0,1.0,0.0,1.0
15,"Carmen, Campeche",18.651739,-91.81492,municipio,"Campeche, Camp.",2.0,0.0,2.0,1.0,0.0,1.0,1.0,0.0,1.0,0.0,0.0,0.0,78.0,23.0,101.0,20.0,26.0,46.0,18.0,43.0,61.0,25.0,36.0,61.0,59.0,40.0,99.0,15.0,15.0,30.0,17.0,4.0,21.0,7.0,0.0,7.0,243.0,187.0,430.0
16,"Champotón, Campeche",19.3439655,-90.7242742,municipio,"Carmen, Camp.",21.0,4.0,25.0,0.0,7.0,7.0,14.0,0.0,14.0,29.0,0.0,29.0,48.0,10.0,58.0,3.0,0.0,3.0,31.0,3.0,34.0,30.0,14.0,44.0,9.0,23.0,32.0,4.0,9.0,13.0,1.0,0.0,1.0,0.0,0.0,0.0,190.0,70.0,260.0
17,"Escárcega, Campeche",18.606934,-90.7385823,municipio,"Champotón, Camp.",0.0,0.0,0.0,0.0,0.0,0.0,47.0,17.0,64.0,3.0,0.0,3.0,1.0,0.0,1.0,1.0,0.0,1.0,0.0,0.0,0.0,0.0,0.0,0.0,48.0,3.0,51.0,5.0,24.0,29.0,0.0,0.0,0.0,0.0,0.0,0.0,105.0,44.0,149.0
18,"Palizada, Campeche",18.2549484,-92.0907089,municipio,"Escárcega, Camp.",4.0,1.0,5.0,0.0,0.0,0.0,12.0,0.0,12.0,62.0,15.0,77.0,48.0,12.0,60.0,32.0,23.0,55.0,79.0,67.0,146.0,163.0,93.0,256.0,342.0,147.0,489.0,319.0,177.0,496.0,312.0,135.0,447.0,315.0,166.0,481.0,1688.0,836.0,2524.0
19,"Seybaplaya, Campeche",19.60337225,-90.62536695555148,municipio,"Palizada, Camp.",0.0,0.0,0.0,0.0,0.0,0.0,0.0,0.0,0.0,0.0,0.0,0.0,0.0,0.0,0.0,0.0,0.0,0.0,0.0,0.0,0.0,0.0,0.0,0.0,0.0,0.0,0.0,11.0,10.0,21.0,0.0,0.0,0.0,0.0,0.0,0.0,11.0,10.0,21.0
20,"Tenabo, Campeche",20.0406607,-90.2254956,municipio,"Seybaplaya, Camp.",0.0,0.0,0.0,0.0,0.0,0.0,5.0,3.0,8.0,3.0,0.0,3.0,1.0,0.0,1.0,0.0,0.0,0.0,0.0,0.0,0.0,0.0,0.0,0.0,1.0,0.0,1.0,0.0,0.0,0.0,0.0,0.0,0.0,0.0,0.0,0.0,10.0,3.0,13.0
21,"Acacoyagua, Chiapas",15.4060577,-92.6972939305788,municipio,"Tenabo, Camp.",0.0,0.0,0.0,0.0,0.0,0.0,0.0,0.0,0.0,0.0,0.0,0.0,0.0,0.0,0.0,0.0,0.0,0.0,0.0,0.0,0.0,15.0,5.0,20.0,1.0,0.0,1.0,0.0,0.0,0.0,0.0,0.0,0.0,0.0,0.0,0.0,16.0,5.0,21.0
22,"Arriaga, Chiapas",16.2344709,-93.9008414,municipio,"Acacoyagua, Chis.",0.0,0.0,0.0,0.0,0.0,0.0,0.0,0.0,0.0,0.0,0.0,0.0,0.0,0.0,0.0,2.0,0.0,2.0,0.0,0.0,0.0,0.0,0.0,0.0,0.0,0.0,0.0,0.0,0.0,0.0,0.0,0.0,0.0,0.0,0.0,0.0,2.0,0.0,2.0
23,"Berriozábal, Chiapas",16.871689449999998,-93.33707618047065,municipio,"Acapetahua, Chis.",810.0,187.0,997.0,1306.0,277.0,1583.0,437.0,95.0,532.0,17.0,11.0,28.0,327.0,135.0,462.0,382.0,261.0,643.0,555.0,149.0,704.0,3.0,106.0,109.0,197.0,167.0,364.0,158.0,247.0,405.0,223.0,207.0,430.0,32.0,31.0,63.0,4447.0,1873.0,6320.0
24,"Catazajá, Chiapas",17.76826375,-92.03793125285311,municipio,"Arriaga, Chis.",285.0,104.0,389.0,429.0,287.0,716.0,737.0,283.0,1020.0,190.0,50.0,240.0,1251.0,419.0,1670.0,1375.0,918.0,2293.0,1475.0,1170.0,2645.0,1.0,1430.0,1431.0,1188.0,1108.0,2296.0,1570.0,970.0,2540.0,1752.0,1280.0,3032.0,522.0,947.0,1469.0,10775.0,8966.0,19741.0
25,"Chenalhó, Chiapas",16.971716100000002,-92.51921237690784,municipio,"Berriozábal, Chis.",0.0,0.0,0.0,0.0,0.0,0.0,0.0,0.0,0.0,0.0,0.0,0.0,20.0,0.0,20.0,0.0,0.0,0.0,0.0,0.0,0.0,0.0,0.0,0.0,0.0,0.0,0.0,0.0,121.0,121.0,0.0,0.0,0.0,0.0,0.0,0.0,20.0,121.0,141.0
26,"Chiapa de Corzo, Chiapas",16.7075202,-93.0115045,municipio,"Catazajá, Chis.",57.0,16.0,73.0,103.0,43.0,146.0,184.0,64.0,248.0,183.0,66.0,249.0,129.0,91.0,220.0,65.0,33.0,98.0,44.0,33.0,77.0,59.0,16.0,75.0,21.0,40.0,61.0,184.0,170.0,354.0,229.0,140.0,369.0,28.0,54.0,82.0,1286.0,766.0,2052.0
27,"Chicomuselo, Chiapas",15.7935524,-92.41926620137892,municipio,"Chanal, Chis.",0.0,0.0,0.0,0.0,0.0,0.0,0.0,0.0,0.0,0.0,0.0,0.0,0.0,0.0,0.0,0.0,1.0,1.0,0.0,0.0,0.0,0.0,0.0,0.0,0.0,0.0,0.0,0.0,0.0,0.0,0.0,0.0,0.0,0.0,0.0,0.0,0.0,1.0,1.0
28,"Cintalapa de Figueroa, Chiapas",16.6905402,-93.7257625,municipio,"Chiapa de Corzo, Chis.",417.0,63.0,480.0,261.0,30.0,291.0,284.0,33.0,317.0,107.0,7.0,114.0,70.0,39.0,109.0,67.0,14.0,81.0,15.0,9.0,24.0,0.0,106.0,106.0,43.0,0.0,43.0,618.0,363.0,981.0,503.0,297.0,800.0,102.0,130.0,232.0,2487.0,1091.0,3578.0
29,"Comitán de Domínguez, Chiapas",16.2911698,-92.17532124270645,municipio,"Cintalapa de Figueroa, Chis.",55.0,52.0,107.0,13.0,7.0,20.0,24.0,17.0,41.0,8.0,1.0,9.0,1.0,0.0,1.0,3.0,0.0,3.0,2.0,26.0,28.0,0.0,10.0,10.0,1.0,3.0,4.0,50.0,52.0,102.0,42.0,48.0,90.0,57.0,48.0,105.0,256.0,264.0,520.0
30,"Copainalá, Chiapas",17.0930214,-93.2102105,municipio,"Comitán de Domínguez, Chis.",35.0,12.0,47.0,41.0,6.0,47.0,37.0,9.0,46.0,21.0,6.0,27.0,0.0,0.0,0.0,0.0,1.0,1.0,1.0,0.0,1.0,0.0,0.0,0.0,2.0,2.0,4.0,2.0,1.0,3.0,0.0,2.0,2.0,0.0,0.0,0.0,139.0,39.0,178.0
31,"Escuintla, Chiapas",15.35100255,-92.55576537361532,municipio,"Copainalá, Chis.",0.0,0.0,0.0,0.0,0.0,0.0,0.0,0.0,0.0,0.0,0.0,0.0,0.0,0.0,0.0,0.0,0.0,0.0,6.0,0.0,6.0,0.0,0.0,0.0,0.0,0.0,0.0,0.0,0.0,0.0,1.0,0.0,1.0,0.0,0.0,0.0,7.0,0.0,7.0
32,"Frontera Comalapa, Chiapas",15.6590135,-92.1422219,municipio,"Escuintla, Chis.",0.0,0.0,0.0,0.0,0.0,0.0,0.0,0.0,0.0,0.0,0.0,0.0,3.0,0.0,3.0,7.0,9.0,16.0,0.0,0.0,0.0,0.0,0.0,0.0,0.0,0.0,0.0,0.0,0.0,0.0,0.0,0.0,0.0,0.0,0.0,0.0,10.0,9.0,19.0
33,"Frontera Hidalgo, Chiapas",14.7531678,-92.21613683447438,municipio,"Frontera Comalapa, Chis.",105.0,104.0,209.0,81.0,42.0,123.0,168.0,63.0,231.0,54.0,20.0,74.0,12.0,1.0,13.0,0.0,26.0,26.0,0.0,0.0,0.0,0.0,56.0,56.0,0.0,15.0,15.0,16.0,30.0,46.0,0.0,0.0,0.0,0.0,0.0,0.0,436.0,357.0,793.0
34,"Huehuetán, Chiapas",15.0217164,-92.42866979063194,municipio,"Frontera Hidalgo, Chis.",36.0,64.0,100.0,62.0,24.0,86.0,13.0,100.0,113.0,4.0,0.0,4.0,9.0,0.0,9.0,0.0,40.0,40.0,15.0,47.0,62.0,2.0,5.0,7.0,14.0,24.0,38.0,31.0,218.0,249.0,11.0,240.0,251.0,285.0,112.0,397.0,482.0,874.0,1356.0
35,"Huixtla, Chiapas",15.122125,-92.50399707604466,municipio,"Huehuetán, Chis.",843.0,369.0,1212.0,670.0,650.0,1320.0,954.0,278.0,1232.0,241.0,33.0,274.0,515.0,218.0,733.0,920.0,351.0,1271.0,686.0,406.0,1092.0,907.0,460.0,1367.0,895.0,223.0,1118.0,1174.0,937.0,2111.0,1305.0,1161.0,2466.0,211.0,286.0,497.0,9321.0,5372.0,14693.0
36,"Jiquipilas, Chiapas",16.57497565,-93.60565427888372,municipio,"Huixtla, Chis.",801.0,544.0,1345.0,561.0,876.0,1437.0,896.0,401.0,1297.0,226.0,59.0,285.0,750.0,433.0,1183.0,1519.0,863.0,2382.0,1768.0,1299.0,3067.0,4.0,1468.0,1472.0,1106.0,1426.0,2532.0,1908.0,2001.0,3909.0,1962.0,1489.0,3451.0,1251.0,144.0,1395.0,12752.0,11003.0,23755.0
37,"La Trinitaria, Chiapas",16.1206164,-92.0542431,municipio,"Jiquipilas, Chis.",0.0,0.0,0.0,0.0,0.0,0.0,0.0,0.0,0.0,0.0,0.0,0.0,0.0,0.0,0.0,0.0,0.0,0.0,0.0,0.0,0.0,0.0,0.0,0.0,0.0,0.0,0.0,177.0,121.0,298.0,200.0,126.0,326.0,51.0,68.0,119.0,428.0,315.0,743.0
38,"Mapastepec, Chiapas",15.43981,-92.898367,municipio,"La Trinitaria, Chis.",2.0,0.0,2.0,0.0,0.0,0.0,0.0,0.0,0.0,0.0,0.0,0.0,0.0,2.0,2.0,1.0,2.0,3.0,0.0,0.0,0.0,0.0,6.0,6.0,0.0,0.0,0.0,0.0,4.0,4.0,0.0,0.0,0.0,0.0,0.0,0.0,3.0,14.0,17.0
39,"Mezcalapa, Chiapas",17.2364959,-93.6349751688609,municipio,"Mapastepec, Chis.",0.0,0.0,0.0,0.0,0.0,0.0,0.0,0.0,0.0,0.0,0.0,0.0,0.0,0.0,0.0,0.0,0.0,0.0,0.0,0.0,0.0,35.0,0.0,35.0,0.0,0.0,0.0,0.0,0.0,0.0,0.0,0.0,0.0,0.0,0.0,0.0,35.0,0.0,35.0
40,"Motozintla, Chiapas",15.3050827,-92.34880361871576,municipio,"Mezcalapa, Chis.",0.0,0.0,0.0,55.0,5.0,60.0,29.0,23.0,52.0,12.0,3.0,15.0,8.0,5.0,13.0,12.0,3.0,15.0,10.0,12.0,22.0,0.0,38.0,38.0,13.0,0.0,13.0,46.0,30.0,76.0,39.0,27.0,66.0,32.0,37.0,69.0,256.0,183.0,439.0
41,"Ocosingo, Chiapas",16.9057,-92.092776,municipio,"Motozintla, Chis.",2.0,0.0,2.0,1.0,0.0,1.0,0.0,0.0,0.0,0.0,0.0,0.0,0.0,1.0,1.0,2.0,0.0,2.0,0.0,0.0,0.0,1.0,1.0,2.0,0.0,0.0,0.0,0.0,0.0,0.0,0.0,0.0,0.0,0.0,0.0,0.0,6.0,2.0,8.0
42,"Ocozocoautla de Espinosa, Chiapas",16.7931431,-93.45696355337824,municipio,"Ocosingo, Chis.",0.0,0.0,0.0,0.0,0.0,0.0,0.0,0.0,0.0,1.0,0.0,1.0,0.0,0.0,0.0,2.0,0.0,2.0,0.0,0.0,0.0,0.0,20.0,20.0,0.0,7.0,7.0,0.0,27.0,27.0,1.0,9.0,10.0,0.0,3.0,3.0,4.0,66.0,70.0
43,"Palenque, Chiapas",17.509188,-91.980922,municipio,"Ocozocoautla de Espinosa, Chis.",184.0,55.0,239.0,82.0,38.0,120.0,64.0,33.0,97.0,47.0,19.0,66.0,67.0,15.0,82.0,44.0,44.0,88.0,34.0,58.0,92.0,0.0,48.0,48.0,2.0,0.0,2.0,21.0,16.0,37.0,89.0,67.0,156.0,119.0,81.0,200.0,753.0,474.0,1227.0
44,"Pantepec, Chiapas",17.194414199999997,-93.05246608493754,municipio,"Palenque, Chis.",367.0,159.0,526.0,436.0,290.0,726.0,435.0,264.0,699.0,382.0,330.0,712.0,386.0,176.0,562.0,435.0,232.0,667.0,327.0,215.0,542.0,177.0,175.0,352.0,180.0,188.0,368.0,1023.0,534.0,1557.0,378.0,376.0,754.0,113.0,152.0,265.0,4639.0,3091.0,7730.0
45,"Pijijiapan, Chiapas",15.6849991,-93.2080195,municipio,"Pijijiapan, Chis.",405.0,6.0,411.0,628.0,38.0,666.0,1043.0,180.0,1223.0,213.0,24.0,237.0,422.0,138.0,560.0,589.0,246.0,835.0,450.0,271.0,721.0,263.0,229.0,492.0,384.0,384.0,768.0,1911.0,292.0,2203.0,1724.0,652.0,2376.0,663.0,141.0,804.0,8695.0,2601.0,11296.0
46,"Salto de Agua, Chiapas",17.4348976,-92.22480249886088,municipio,"Salto de Agua, Chis.",0.0,0.0,0.0,2.0,0.0,2.0,2.0,0.0,2.0,0.0,0.0,0.0,0.0,0.0,0.0,0.0,0.0,0.0,5.0,0.0,5.0,0.0,0.0,0.0,0.0,0.0,0.0,0.0,0.0,0.0,0.0,0.0,0.0,0.0,0.0,0.0,9.0,0.0,9.0
47,"San Cristóbal de las Casas, Chiapas",16.6835469,-92.61551841991157,municipio,"San Cristóbal de las Casas, Chis.",48.0,23.0,71.0,180.0,41.0,221.0,135.0,16.0,151.0,50.0,16.0,66.0,0.0,0.0,0.0,0.0,2.0,2.0,82.0,106.0,188.0,0.0,1.0,1.0,0.0,0.0,0.0,0.0,0.0,0.0,0.0,0.0,0.0,0.0,0.0,0.0,495.0,205.0,700.0
48,"Siltepec, Chiapas",15.5561492,-92.3226035,municipio,"Siltepec, Chis.",0.0,0.0,0.0,0.0,0.0,0.0,0.0,0.0,0.0,0.0,0.0,0.0,0.0,0.0,0.0,1.0,0.0,1.0,0.0,0.0,0.0,0.0,0.0,0.0,0.0,0.0,0.0,0.0,0.0,0.0,0.0,0.0,0.0,0.0,0.0,0.0,1.0,0.0,1.0
49,"Suchiate, Chiapas",14.6321744,-92.24196336095298,municipio,"Suchiate, Chis.",708.0,278.0,986.0,591.0,396.0,987.0,654.0,452.0,1106.0,275.0,106.0,381.0,927.0,1047.0,1974.0,1581.0,2007.0,3588.0,1888.0,2178.0,4066.0,16.0,3417.0,3433.0,1932.0,2340.0,4272.0,1097.0,1419.0,2516.0,876.0,1796.0,2672.0,1017.0,1205.0,2222.0,11562.0,16641.0,28203.0
50,"Tapachula, Chiapas",14.9042905,-92.2609265,municipio,"Tapachula, Chis.",1606.0,4559.0,6165.0,1877.0,3819.0,5696.0,2602.0,2670.0,5272.0,995.0,312.0,1307.0,3396.0,2562.0,5958.0,5603.0,4222.0,9825.0,6106.0,4333.0,10439.0,54.0,4857.0,4911.0,6014.0,3379.0,9393.0,2305.0,2288.0,4593.0,1393.0,2157.0,3550.0,2540.0,1016.0,3556.0,34491.0,36174.0,70665.0
51,"Teopisca, Chiapas",16.5420839,-92.4736561,municipio,"Teopisca, Chis.",0.0,0.0,0.0,0.0,0.0,0.0,0.0,0.0,0.0,0.0,0.0,0.0,0.0,0.0,0.0,0.0,0.0,0.0,0.0,0.0,0.0,0.0,1.0,1.0,0.0,0.0,0.0,0.0,0.0,0.0,0.0,0.0,0.0,0.0,0.0,0.0,0.0,1.0,1.0
52,"Tonalá, Chiapas",16.0894476,-93.7546502,municipio,"Tonalá, Chis.",0.0,0.0,0.0,0.0,0.0,0.0,0.0,0.0,0.0,3.0,4.0,7.0,55.0,85.0,140.0,29.0,16.0,45.0,0.0,0.0,0.0,13.0,0.0,13.0,0.0,0.0,0.0,0.0,25.0,25.0,0.0,0.0,0.0,0.0,0.0,0.0,100.0,130.0,230.0
53,"Tuxtla Chico, Chiapas",14.8768619,-92.19675245459756,municipio,"Tuxtla Chico, Chis.",84.0,30.0,114.0,0.0,0.0,0.0,571.0,55.0,626.0,144.0,0.0,144.0,1755.0,126.0,1881.0,1849.0,2.0,1851.0,3165.0,341.0,3506.0,9.0,916.0,925.0,3931.0,1277.0,5208.0,1984.0,525.0,2509.0,1254.0,983.0,2237.0,561.0,141.0,702.0,15307.0,4396.0,19703.0
54,"Tuxtla Gutiérrez, Chiapas",16.753801,-93.115959,municipio,"Tuxtla Gutiérrez, Chis.",386.0,110.0,496.0,250.0,108.0,358.0,396.0,97.0,493.0,120.0,33.0,153.0,245.0,87.0,332.0,50.0,29.0,79.0,98.0,148.0,246.0,26.0,67.0,93.0,83.0,1.0,84.0,2013.0,1028.0,3041.0,2517.0,1209.0,3726.0,698.0,467.0,1165.0,6882.0,3384.0,10266.0
55,"Unión Juárez, Chiapas",15.07074175,-92.09254280799922,municipio,"Unión Juárez, Chis.",427.0,108.0,535.0,442.0,226.0,668.0,188.0,152.0,340.0,54.0,30.0,84.0,12.0,6.0,18.0,0.0,12.0,12.0,0.0,17.0,17.0,0.0,14.0,14.0,0.0,0.0,0.0,37.0,260.0,297.0,4.0,171.0,175.0,366.0,149.0,515.0,1530.0,1145.0,2675.0
56,"Villa Comaltitlán, Chiapas",15.1709732,-92.61288629080111,municipio,"Villa Comaltitlán, Chis.",0.0,0.0,0.0,0.0,0.0,0.0,1.0,1.0,2.0,0.0,6.0,6.0,66.0,45.0,111.0,74.0,23.0,97.0,60.0,71.0,131.0,3.0,181.0,184.0,365.0,141.0,506.0,368.0,38.0,406.0,135.0,94.0,229.0,89.0,62.0,151.0,1161.0,662.0,1823.0
57,"Villa Corzo, Chiapas",16.0631888,-93.26500252520376,municipio,"Villa Corzo, Chis.",237.0,24.0,261.0,8.0,0.0,8.0,3.0,1.0,4.0,5.0,0.0,5.0,27.0,6.0,33.0,19.0,21.0,40.0,4.0,19.0,23.0,0.0,6.0,6.0,0.0,0.0,0.0,0.0,0.0,0.0,0.0,0.0,0.0,0.0,0.0,0.0,303.0,77.0,380.0
58,"Villaflores, Chiapas",16.37550225,-93.3589334041931,municipio,"Villaflores, Chis.",0.0,0.0,0.0,0.0,0.0,0.0,0.0,0.0,0.0,0.0,0.0,0.0,0.0,0.0,0.0,0.0,0.0,0.0,0.0,0.0,0.0,0.0,0.0,0.0,1.0,0.0,1.0,1.0,0.0,1.0,0.0,0.0,0.0,0.0,0.0,0.0,2.0,0.0,2.0
59,"Yajalón, Chiapas",17.1768885,-92.3519609858044,municipio,"Chihuahua, Chih.",35.0,6.0,41.0,24.0,4.0,28.0,52.0,14.0,66.0,13.0,3.0,16.0,3.0,0.0,3.0,146.0,3.0,149.0,477.0,12.0,489.0,714.0,26.0,740.0,79.0,6.0,85.0,12.0,5.0,17.0,139.0,81.0,220.0,141.0,45.0,186.0,1835.0,205.0,2040.0
60,"Chihuahua, Chihuahua",28.5000001,-106.0000001,municipio,"Janos, Chih.",33.0,0.0,33.0,1.0,0.0,1.0,1.0,0.0,1.0,0.0,0.0,0.0,0.0,0.0,0.0,2.0,0.0,2.0,3.0,0.0,3.0,7.0,0.0,7.0,7.0,0.0,7.0,0.0,0.0,0.0,17.0,0.0,17.0,45.0,0.0,45.0,116.0,0.0,116.0
61,"Janos, Chihuahua",30.8893267,-108.1930484,municipio,"Juárez, Chih.",1912.0,731.0,2643.0,1307.0,331.0,1638.0,328.0,1.0,329.0,0.0,0.0,0.0,256.0,0.0,256.0,937.0,0.0,937.0,399.0,0.0,399.0,355.0,1.0,356.0,382.0,1.0,383.0,115.0,0.0,115.0,541.0,0.0,541.0,367.0,0.0,367.0,6899.0,1065.0,7964.0
62,"Juárez, Chihuahua",31.7372575,-106.485655,municipio,"Ojinaga, Chih.",8.0,0.0,8.0,14.0,0.0,14.0,38.0,0.0,38.0,18.0,0.0,18.0,0.0,0.0,0.0,0.0,0.0,0.0,9.0,0.0,9.0,0.0,0.0,0.0,3.0,0.0,3.0,0.0,0.0,0.0,0.0,4.0,4.0,7.0,0.0,7.0,97.0,4.0,101.0
63,"Ojinaga, Chihuahua",29.5654282,-104.4128523,municipio,"Coyoacán, CDMX",0.0,0.0,0.0,0.0,0.0,0.0,0.0,0.0,0.0,0.0,0.0,0.0,0.0,0.0,0.0,0.0,0.0,0.0,0.0,0.0,0.0,0.0,0.0,0.0,0.0,0.0,0.0,0.0,1.0,1.0,0.0,0.0,0.0,0.0,0.0,0.0,0.0,1.0,1.0
64,"Coyoacán, Ciudad de México",19.349885,-99.1623599,municipio,"Gustavo A. Madero, CDMX",0.0,0.0,0.0,0.0,26.0,26.0,0.0,58.0,58.0,0.0,119.0,119.0,0.0,16.0,16.0,0.0,104.0,104.0,0.0,160.0,160.0,0.0,112.0,112.0,0.0,106.0,106.0,0.0,139.0,139.0,0.0,89.0,89.0,0.0,66.0,66.0,0.0,995.0,995.0
65,"Gustavo A. Madero, Ciudad de México",19.4831686,-99.1137888,municipio,"Iztapalapa, CDMX",268.0,3.0,271.0,453.0,8.0,461.0,492.0,6.0,498.0,384.0,3.0,387.0,255.0,7.0,262.0,530.0,12.0,542.0,636.0,3.0,639.0,583.0,9.0,592.0,607.0,2.0,609.0,708.0,0.0,708.0,605.0,81.0,686.0,436.0,0.0,436.0,5957.0,134.0,6091.0
66,"Iztapalapa, Ciudad de México",19.3591195,-99.0929294,municipio,"Venustiano Carranza, CDMX",0.0,148.0,148.0,0.0,156.0,156.0,0.0,217.0,217.0,1.0,110.0,111.0,0.0,26.0,26.0,0.0,124.0,124.0,1.0,158.0,159.0,0.0,275.0,275.0,0.0,190.0,190.0,0.0,175.0,175.0,0.0,109.0,109.0,0.0,138.0,138.0,2.0,1826.0,1828.0
67,"Venustiano Carranza, Ciudad de México",19.4192787,-99.1135639,municipio,"Acuña, Coah.",154.0,1.0,155.0,434.0,5.0,439.0,343.0,11.0,354.0,400.0,37.0,437.0,160.0,70.0,230.0,19.0,1.0,20.0,12.0,3.0,15.0,19.0,3.0,22.0,0.0,0.0,0.0,0.0,0.0,0.0,0.0,0.0,0.0,0.0,0.0,0.0,1541.0,131.0,1672.0
68,"Acuña, Coahuila",29.3248796,-100.9322287,municipio,"Monclova, Coah.",147.0,30.0,177.0,62.0,8.0,70.0,183.0,14.0,197.0,20.0,0.0,20.0,6.0,6.0,12.0,13.0,0.0,13.0,0.0,0.0,0.0,0.0,0.0,0.0,91.0,53.0,144.0,1.0,0.0,1.0,34.0,71.0,105.0,218.0,247.0,465.0,775.0,429.0,1204.0
69,"Allende, Coahuila",28.3420816,-100.8517302,municipio,"Piedras Negras, Coah.",2974.0,623.0,3597.0,903.0,444.0,1347.0,1446.0,324.0,1770.0,1514.0,177.0,1691.0,772.0,440.0,1212.0,872.0,658.0,1530.0,817.0,579.0,1396.0,681.0,538.0,1219.0,929.0,184.0,1113.0,1056.0,205.0,1261.0,943.0,545.0,1488.0,2914.0,992.0,3906.0,15821.0,5709.0,21530.0
70,"Francisco I. Madero, Coahuila",26.23755265,-103.09965556876554,municipio,"Saltillo, Coah.",154.0,21.0,175.0,97.0,85.0,182.0,75.0,21.0,96.0,19.0,16.0,35.0,10.0,4.0,14.0,3.0,25.0,28.0,2.0,0.0,2.0,1.0,16.0,17.0,1.0,5.0,6.0,0.0,0.0,0.0,18.0,29.0,47.0,112.0,211.0,323.0,492.0,433.0,925.0
71,"Guerrero, Coahuila",28.3093253,-100.3805564,municipio,"Torreón, Coah.",5.0,65.0,70.0,55.0,49.0,104.0,278.0,139.0,417.0,59.0,9.0,68.0,37.0,16.0,53.0,4.0,42.0,46.0,4.0,0.0,4.0,0.0,0.0,0.0,0.0,0.0,0.0,0.0,0.0,0.0,9.0,9.0,18.0,19.0,25.0,44.0,470.0,354.0,824.0
72,"Monclova, Coahuila",26.8999988,-101.4171173,municipio,"Colima, Col.",0.0,0.0,0.0,1.0,0.0,1.0,0.0,0.0,0.0,0.0,0.0,0.0,0.0,0.0,0.0,2.0,0.0,2.0,1.0,0.0,1.0,2.0,0.0,2.0,0.0,0.0,0.0,0.0,0.0,0.0,0.0,0.0,0.0,0.0,0.0,0.0,6.0,0.0,6.0
73,"Nava, Coahuila",28.4217309,-100.7674167,municipio,"Manzanillo, Col.",1.0,0.0,1.0,0.0,0.0,0.0,2.0,0.0,2.0,0.0,0.0,0.0,0.0,0.0,0.0,0.0,0.0,0.0,0.0,0.0,0.0,1.0,0.0,1.0,5.0,0.0,5.0,0.0,0.0,0.0,1.0,0.0,1.0,0.0,0.0,0.0,10.0,0.0,10.0
74,"Piedras Negras, Coahuila",28.7041725,-100.5148362,municipio,"Villa de Álvarez, Col.",0.0,0.0,0.0,0.0,0.0,0.0,1.0,0.0,1.0,0.0,0.0,0.0,0.0,0.0,0.0,0.0,0.0,0.0,0.0,0.0,0.0,0.0,0.0,0.0,0.0,0.0,0.0,1.0,0.0,1.0,0.0,0.0,0.0,0.0,0.0,0.0,2.0,0.0,2.0
75,"Saltillo, Coahuila",25.4230425,-100.9927509,municipio,"Durango, Dgo.",18.0,7.0,25.0,0.0,9.0,9.0,0.0,4.0,4.0,36.0,21.0,57.0,24.0,11.0,35.0,23.0,10.0,33.0,56.0,14.0,70.0,181.0,0.0,181.0,33.0,4.0,37.0,103.0,3.0,106.0,17.0,0.0,17.0,0.0,0.0,0.0,491.0,83.0,574.0
76,"Torreón, Coahuila",25.542698,-103.410512,municipio,"Gómez Palacio, Dgo.",173.0,42.0,215.0,127.0,37.0,164.0,147.0,14.0,161.0,29.0,18.0,47.0,4.0,0.0,4.0,0.0,10.0,10.0,12.0,3.0,15.0,50.0,1.0,51.0,17.0,0.0,17.0,52.0,0.0,52.0,54.0,0.0,54.0,59.0,0.0,59.0,724.0,125.0,849.0
77,"Colima, Colima",19.166667,-104.0,municipio,"Mapimí, Dgo.",0.0,0.0,0.0,0.0,0.0,0.0,0.0,0.0,0.0,23.0,0.0,23.0,0.0,0.0,0.0,0.0,0.0,0.0,0.0,0.0,0.0,0.0,0.0,0.0,0.0,0.0,0.0,0.0,0.0,0.0,0.0,0.0,0.0,0.0,0.0,0.0,23.0,0.0,23.0
78,"Manzanillo, Colima",19.0506256,-104.3159957,municipio,"Acambay de Ruíz Castañeda, Méx.",0.0,0.0,0.0,0.0,0.0,0.0,0.0,0.0,0.0,0.0,0.0,0.0,0.0,0.0,0.0,1.0,0.0,1.0,0.0,0.0,0.0,0.0,0.0,0.0,0.0,0.0,0.0,0.0,0.0,0.0,0.0,0.0,0.0,0.0,0.0,0.0,1.0,0.0,1.0
79,"Villa de Álvarez, Colima",19.2651417,-103.736013,municipio,"Apaxco, Méx.",0.0,0.0,0.0,0.0,0.0,0.0,0.0,0.0,0.0,0.0,0.0,0.0,0.0,0.0,0.0,0.0,0.0,0.0,0.0,0.0,0.0,0.0,0.0,0.0,280.0,242.0,522.0,693.0,819.0,1512.0,154.0,247.0,401.0,23.0,16.0,39.0,1150.0,1324.0,2474.0
80,"Durango, Durango",24.833333,-104.833333,municipio,"Atlacomulco, Méx.",0.0,0.0,0.0,0.0,0.0,0.0,0.0,0.0,0.0,0.0,0.0,0.0,0.0,0.0,0.0,0.0,0.0,0.0,0.0,0.0,0.0,0.0,0.0,0.0,51.0,0.0,51.0,0.0,0.0,0.0,0.0,0.0,0.0,0.0,0.0,0.0,51.0,0.0,51.0
81,"Gómez Palacio, Durango",25.5732473,-103.494779,municipio,"Chalco, Méx.",0.0,0.0,0.0,0.0,0.0,0.0,0.0,0.0,0.0,29.0,2.0,31.0,0.0,0.0,0.0,0.0,0.0,0.0,34.0,40.0,74.0,71.0,229.0,300.0,6.0,0.0,6.0,0.0,0.0,0.0,0.0,0.0,0.0,0.0,0.0,0.0,140.0,271.0,411.0
82,"Mapimí, Durango",25.8337403,-103.8480216,municipio,"Cuautitlán, Méx.",0.0,0.0,0.0,0.0,0.0,0.0,0.0,0.0,0.0,0.0,0.0,0.0,1.0,0.0,1.0,1.0,0.0,1.0,0.0,0.0,0.0,0.0,0.0,0.0,1.0,0.0,1.0,0.0,0.0,0.0,0.0,0.0,0.0,0.0,0.0,0.0,3.0,0.0,3.0
83,"Acambay de Ruíz Castañeda, México",19.95904705,-99.84802086293078,municipio,"Ecatepec de Morelos, Méx.",0.0,0.0,0.0,0.0,0.0,0.0,123.0,10.0,133.0,1.0,0.0,1.0,0.0,0.0,0.0,1.0,0.0,1.0,0.0,0.0,0.0,20.0,21.0,41.0,0.0,0.0,0.0,0.0,0.0,0.0,9.0,0.0,9.0,0.0,0.0,0.0,154.0,31.0,185.0
84,"Amecameca, México",19.120025400000003,-98.70653181362624,municipio,"Huehuetoca, Méx.",0.0,0.0,0.0,0.0,15.0,15.0,40.0,4.0,44.0,15.0,2.0,17.0,0.0,0.0,0.0,5.0,0.0,5.0,10.0,18.0,28.0,20.0,11.0,31.0,2.0,0.0,2.0,0.0,0.0,0.0,72.0,135.0,207.0,0.0,0.0,0.0,164.0,185.0,349.0
85,"Apaxco, México",19.9807399,-99.15181011020428,municipio,"Ixtapaluca, Méx.",0.0,0.0,0.0,0.0,0.0,0.0,0.0,0.0,0.0,0.0,0.0,0.0,0.0,0.0,0.0,0.0,0.0,0.0,0.0,11.0,11.0,0.0,0.0,0.0,0.0,0.0,0.0,0.0,0.0,0.0,0.0,0.0,0.0,0.0,0.0,0.0,0.0,11.0,11.0
86,"Atlacomulco, México",19.81591915,-99.86811932469178,municipio,"Naucalpan de Juárez, Méx.",0.0,0.0,0.0,0.0,0.0,0.0,0.0,0.0,0.0,0.0,0.0,0.0,0.0,0.0,0.0,0.0,0.0,0.0,0.0,0.0,0.0,0.0,0.0,0.0,0.0,0.0,0.0,1.0,0.0,1.0,0.0,0.0,0.0,0.0,0.0,0.0,1.0,0.0,1.0
87,"Chalco, México",19.2382585,-98.81888376395176,municipio,"Nezahualcóyotl, Méx.",0.0,0.0,0.0,0.0,0.0,0.0,0.0,0.0,0.0,0.0,0.0,0.0,0.0,0.0,0.0,0.0,0.0,0.0,0.0,0.0,0.0,0.0,0.0,0.0,0.0,10.0,10.0,10.0,2.0,12.0,0.0,0.0,0.0,0.0,0.0,0.0,10.0,12.0,22.0
88,"Cuautitlán, México",19.6531356,-99.2145002,municipio,"Ocoyoacac, Méx.",0.0,0.0,0.0,0.0,0.0,0.0,0.0,0.0,0.0,0.0,0.0,0.0,0.0,0.0,0.0,0.0,0.0,0.0,0.0,0.0,0.0,0.0,0.0,0.0,1.0,0.0,1.0,0.0,0.0,0.0,0.0,0.0,0.0,2.0,0.0,2.0,3.0,0.0,3.0
89,"Ecatepec de Morelos, México",19.6043981,-98.988231,municipio,"Tecámac, Méx.",0.0,0.0,0.0,0.0,0.0,0.0,0.0,0.0,0.0,2.0,0.0,2.0,0.0,0.0,0.0,0.0,0.0,0.0,0.0,0.0,0.0,0.0,0.0,0.0,0.0,0.0,0.0,0.0,0.0,0.0,0.0,0.0,0.0,0.0,0.0,0.0,2.0,0.0,2.0
90,"Huehuetoca, México",19.833375,-99.2044638,municipio,"Tepotzotlán, Méx.",341.0,146.0,487.0,494.0,128.0,622.0,410.0,24.0,434.0,140.0,39.0,179.0,109.0,25.0,134.0,151.0,18.0,169.0,313.0,34.0,347.0,99.0,52.0,151.0,68.0,27.0,95.0,650.0,745.0,1395.0,453.0,468.0,921.0,0.0,0.0,0.0,3228.0,1706.0,4934.0
91,"Ixtapaluca, México",19.3129326,-98.8840481,municipio,"Texcoco, Méx.",0.0,0.0,0.0,0.0,0.0,0.0,0.0,0.0,0.0,0.0,0.0,0.0,0.0,0.0,0.0,0.0,0.0,0.0,0.0,0.0,0.0,0.0,0.0,0.0,33.0,120.0,153.0,0.0,0.0,0.0,0.0,0.0,0.0,0.0,0.0,0.0,33.0,120.0,153.0
92,"Naucalpan de Juárez, México",19.4788356,-99.2327986,municipio,"Tlalnepantla de Baz, Méx.",0.0,0.0,0.0,0.0,0.0,0.0,1.0,0.0,1.0,0.0,0.0,0.0,0.0,0.0,0.0,2.0,0.0,2.0,0.0,0.0,0.0,0.0,0.0,0.0,22.0,22.0,44.0,0.0,0.0,0.0,0.0,0.0,0.0,13.0,15.0,28.0,38.0,37.0,75.0
93,"Nezahualcóyotl, México",19.4079028,-99.0181547,municipio,"Toluca, Méx.",115.0,0.0,115.0,81.0,0.0,81.0,0.0,0.0,0.0,2.0,0.0,2.0,29.0,0.0,29.0,24.0,0.0,24.0,108.0,7.0,115.0,51.0,0.0,51.0,80.0,2.0,82.0,101.0,20.0,121.0,71.0,49.0,120.0,14.0,0.0,14.0,676.0,78.0,754.0
94,"Ocoyoacac, México",19.2587373,-99.41777785971426,municipio,"Xalatlaco, Méx.",0.0,0.0,0.0,0.0,0.0,0.0,0.0,0.0,0.0,0.0,0.0,0.0,0.0,0.0,0.0,0.0,0.0,0.0,2.0,0.0,2.0,0.0,0.0,0.0,0.0,0.0,0.0,0.0,0.0,0.0,0.0,0.0,0.0,0.0,0.0,0.0,2.0,0.0,2.0
95,"Tecámac, México",19.7115011,-98.968354,municipio,"Zumpango, Méx.",0.0,13.0,13.0,0.0,9.0,9.0,0.0,15.0,15.0,0.0,0.0,0.0,0.0,14.0,14.0,0.0,0.0,0.0,0.0,12.0,12.0,0.0,22.0,22.0,0.0,22.0,22.0,2.0,22.0,24.0,0.0,13.0,13.0,0.0,11.0,11.0,2.0,153.0,155.0
96,"Tepotzotlán, México",19.7173392,-99.2230683,municipio,"Apaseo el Alto, Gto.",0.0,0.0,0.0,0.0,0.0,0.0,0.0,0.0,0.0,0.0,0.0,0.0,0.0,0.0,0.0,1.0,0.0,1.0,0.0,0.0,0.0,0.0,0.0,0.0,0.0,0.0,0.0,0.0,0.0,0.0,0.0,0.0,0.0,0.0,0.0,0.0,1.0,0.0,1.0
97,"Texcoco, México",19.5144327,-98.8821254,municipio,"Apaseo el Grande, Gto.",0.0,0.0,0.0,0.0,0.0,0.0,0.0,0.0,0.0,22.0,0.0,22.0,0.0,0.0,0.0,0.0,0.0,0.0,0.0,0.0,0.0,0.0,0.0,0.0,0.0,0.0,0.0,0.0,0.0,0.0,0.0,0.0,0.0,0.0,0.0,0.0,22.0,0.0,22.0
98,"Tlalnepantla de Baz, México",19.54649025,-99.1899352247449,municipio,"Celaya, Gto.",1.0,0.0,1.0,4.0,0.0,4.0,0.0,0.0,0.0,2.0,0.0,2.0,0.0,0.0,0.0,0.0,1.0,1.0,0.0,0.0,0.0,0.0,0.0,0.0,0.0,0.0,0.0,0.0,0.0,0.0,0.0,0.0,0.0,0.0,0.0,0.0,7.0,1.0,8.0
99,"Toluca, México",19.292545,-99.6569007,municipio,"Comonfort, Gto.",5.0,0.0,5.0,6.0,0.0,6.0,17.0,0.0,17.0,1.0,0.0,1.0,0.0,0.0,0.0,0.0,0.0,0.0,0.0,0.0,0.0,0.0,0.0,0.0,0.0,0.0,0.0,0.0,0.0,0.0,0.0,0.0,0.0,0.0,0.0,0.0,29.0,0.0,29.0
100,"Xalatlaco, México",19.1843821,-99.4145622,municipio,"Irapuato, Gto.",5.0,0.0,5.0,22.0,0.0,22.0,6.0,0.0,6.0,4.0,0.0,4.0,1.0,0.0,1.0,5.0,0.0,5.0,0.0,0.0,0.0,0.0,0.0,0.0,0.0,0.0,0.0,0.0,0.0,0.0,0.0,0.0,0.0,0.0,0.0,0.0,43.0,0.0,43.0
101,"Zumpango, México",19.81293675,-99.08180953352704,municipio,"León, Gto.",2.0,0.0,2.0,0.0,0.0,0.0,0.0,0.0,0.0,1.0,0.0,1.0,0.0,0.0,0.0,0.0,0.0,0.0,0.0,0.0,0.0,0.0,0.0,0.0,0.0,0.0,0.0,0.0,0.0,0.0,0.0,0.0,0.0,0.0,0.0,0.0,3.0,0.0,3.0
102,"Apaseo el Alto, Guanajuato",20.4562767,-100.621263,municipio,"Ocampo, Gto.",5.0,0.0,5.0,0.0,0.0,0.0,1.0,0.0,1.0,0.0,0.0,0.0,0.0,0.0,0.0,0.0,0.0,0.0,0.0,0.0,0.0,0.0,0.0,0.0,0.0,0.0,0.0,0.0,0.0,0.0,0.0,0.0,0.0,0.0,0.0,0.0,6.0,0.0,6.0
103,"Apaseo el Grande, Guanajuato",20.59193265,-100.59798678636592,municipio,"Salamanca, Gto.",0.0,0.0,0.0,5.0,0.0,5.0,0.0,0.0,0.0,1.0,0.0,1.0,0.0,0.0,0.0,0.0,0.0,0.0,0.0,0.0,0.0,0.0,0.0,0.0,0.0,0.0,0.0,0.0,0.0,0.0,0.0,0.0,0.0,0.0,0.0,0.0,6.0,0.0,6.0
104,"Celaya, Guanajuato",20.521788,-100.8140458,municipio,"San Luis de la Paz, Gto.",6.0,0.0,6.0,30.0,0.0,30.0,21.0,0.0,21.0,8.0,0.0,8.0,0.0,0.0,0.0,0.0,0.0,0.0,0.0,0.0,0.0,0.0,0.0,0.0,0.0,0.0,0.0,0.0,0.0,0.0,0.0,0.0,0.0,0.0,0.0,0.0,65.0,0.0,65.0
105,"Comonfort, Guanajuato",20.7199475,-100.761188,municipio,"San Miguel de Allende, Gto.",2.0,0.0,2.0,5.0,0.0,5.0,0.0,1.0,1.0,1.0,0.0,1.0,0.0,0.0,0.0,1.0,0.0,1.0,0.0,0.0,0.0,0.0,6.0,6.0,0.0,0.0,0.0,0.0,0.0,0.0,0.0,0.0,0.0,0.0,0.0,0.0,9.0,7.0,16.0
106,"Dolores Hidalgo Cuna de la Independencia Nacional, Guanajuato",21.1043597,-100.7259581,municipio,"Acapulco de Juárez, Gro.",1.0,0.0,1.0,0.0,0.0,0.0,3.0,14.0,17.0,4.0,0.0,4.0,0.0,1.0,1.0,4.0,0.0,4.0,1.0,0.0,1.0,0.0,0.0,0.0,0.0,4.0,4.0,0.0,0.0,0.0,0.0,0.0,0.0,0.0,0.0,0.0,13.0,19.0,32.0
107,"Irapuato, Guanajuato",20.6758761,-101.3521052,municipio,"Azoyú, Gro.",0.0,0.0,0.0,74.0,29.0,103.0,278.0,62.0,340.0,146.0,20.0,166.0,0.0,0.0,0.0,0.0,0.0,0.0,42.0,8.0,50.0,114.0,23.0,137.0,99.0,68.0,167.0,42.0,18.0,60.0,0.0,0.0,0.0,0.0,0.0,0.0,795.0,228.0,1023.0
108,"León, Guanajuato",21.1218598,-101.6825081,municipio,"Chilpancingo de los Bravo, Gro.",1.0,0.0,1.0,19.0,5.0,24.0,5.0,0.0,5.0,0.0,0.0,0.0,0.0,0.0,0.0,0.0,0.0,0.0,0.0,0.0,0.0,0.0,0.0,0.0,0.0,0.0,0.0,0.0,0.0,0.0,0.0,0.0,0.0,0.0,0.0,0.0,25.0,5.0,30.0
109,"Ocampo, Guanajuato",21.6042823,-101.47623930019084,municipio,"San Marcos, Gro.",94.0,19.0,113.0,169.0,30.0,199.0,0.0,0.0,0.0,0.0,0.0,0.0,0.0,0.0,0.0,0.0,0.0,0.0,5.0,4.0,9.0,8.0,29.0,37.0,0.0,7.0,7.0,0.0,0.0,0.0,0.0,14.0,14.0,0.0,0.0,0.0,276.0,103.0,379.0
110,"Salamanca, Guanajuato",20.571358,-101.192444,municipio,"Zihuatanejo de Azueta, Gro.",1.0,0.0,1.0,8.0,2.0,10.0,3.0,0.0,3.0,0.0,0.0,0.0,0.0,0.0,0.0,0.0,0.0,0.0,0.0,0.0,0.0,0.0,0.0,0.0,0.0,0.0,0.0,0.0,0.0,0.0,0.0,0.0,0.0,0.0,0.0,0.0,12.0,2.0,14.0
111,"San Luis de la Paz, Guanajuato",21.2970466,-100.516269,municipio,"Actopan, Hgo.",0.0,0.0,0.0,0.0,0.0,0.0,0.0,0.0,0.0,1.0,0.0,1.0,0.0,0.0,0.0,0.0,0.0,0.0,0.0,0.0,0.0,1.0,0.0,1.0,0.0,0.0,0.0,0.0,0.0,0.0,0.0,0.0,0.0,0.0,0.0,0.0,2.0,0.0,2.0
112,"San Miguel de Allende, Guanajuato",20.9142238,-100.743784,municipio,"Alfajayucan, Hgo.",0.0,0.0,0.0,0.0,0.0,0.0,0.0,0.0,0.0,0.0,0.0,0.0,0.0,0.0,0.0,0.0,0.0,0.0,1.0,0.0,1.0,0.0,0.0,0.0,0.0,0.0,0.0,0.0,0.0,0.0,0.0,0.0,0.0,0.0,0.0,0.0,1.0,0.0,1.0
113,"Acapulco de Juárez, Guerrero",16.8680495,-99.8940182,municipio,"Apan, Hgo.",0.0,0.0,0.0,2.0,0.0,2.0,1.0,0.0,1.0,0.0,0.0,0.0,0.0,0.0,0.0,0.0,0.0,0.0,0.0,0.0,0.0,1.0,0.0,1.0,0.0,0.0,0.0,0.0,0.0,0.0,0.0,1.0,1.0,0.0,0.0,0.0,4.0,1.0,5.0
114,"Azoyú, Guerrero",16.730833,-98.600833,municipio,"Atitalaquia, Hgo.",0.0,0.0,0.0,2.0,0.0,2.0,0.0,0.0,0.0,0.0,0.0,0.0,0.0,0.0,0.0,0.0,0.0,0.0,0.0,0.0,0.0,0.0,0.0,0.0,0.0,0.0,0.0,0.0,0.0,0.0,0.0,0.0,0.0,0.0,0.0,0.0,2.0,0.0,2.0
115,"Chilpancingo de los Bravo, Guerrero",17.5542149,-99.5048416,municipio,"Chapulhuacán, Hgo.",0.0,0.0,0.0,3.0,15.0,18.0,0.0,0.0,0.0,0.0,0.0,0.0,0.0,0.0,0.0,0.0,0.0,0.0,0.0,0.0,0.0,0.0,0.0,0.0,0.0,0.0,0.0,0.0,0.0,0.0,0.0,0.0,0.0,0.0,0.0,0.0,3.0,15.0,18.0
116,"San Marcos, Guerrero",16.85734375,-99.39034185147702,municipio,"Emiliano Zapata, Hgo.",0.0,0.0,0.0,0.0,0.0,0.0,0.0,0.0,0.0,0.0,0.0,0.0,0.0,0.0,0.0,0.0,0.0,0.0,0.0,0.0,0.0,1.0,0.0,1.0,0.0,0.0,0.0,0.0,0.0,0.0,0.0,0.0,0.0,0.0,0.0,0.0,1.0,0.0,1.0
117,"Zihuatanejo de Azueta, Guerrero",17.80789995,-101.49695243500553,municipio,"Epazoyucan, Hgo.",0.0,0.0,0.0,1.0,0.0,1.0,0.0,0.0,0.0,0.0,0.0,0.0,0.0,0.0,0.0,0.0,0.0,0.0,0.0,0.0,0.0,0.0,0.0,0.0,0.0,0.0,0.0,0.0,0.0,0.0,0.0,0.0,0.0,0.0,0.0,0.0,1.0,0.0,1.0
118,"Actopan, Hidalgo",20.2687373,-98.9431476,municipio,"Huasca de Ocampo, Hgo.",0.0,0.0,0.0,0.0,0.0,0.0,0.0,0.0,0.0,0.0,0.0,0.0,0.0,0.0,0.0,0.0,0.0,0.0,0.0,0.0,0.0,1.0,0.0,1.0,0.0,0.0,0.0,0.0,0.0,0.0,0.0,0.0,0.0,0.0,0.0,0.0,1.0,0.0,1.0
119,"Alfajayucan, Hidalgo",20.410277,-99.40315343558592,municipio,"Ixmiquilpan, Hgo.",0.0,0.0,0.0,0.0,0.0,0.0,0.0,0.0,0.0,1.0,0.0,1.0,0.0,0.0,0.0,0.0,0.0,0.0,0.0,0.0,0.0,0.0,0.0,0.0,0.0,0.0,0.0,0.0,0.0,0.0,0.0,0.0,0.0,0.0,0.0,0.0,1.0,0.0,1.0
120,"Apan, Hidalgo",19.7098559,-98.4502318,municipio,"Mineral de la Reforma, Hgo.",1.0,0.0,1.0,0.0,0.0,0.0,0.0,0.0,0.0,0.0,0.0,0.0,0.0,0.0,0.0,18.0,0.0,18.0,0.0,0.0,0.0,1.0,0.0,1.0,0.0,0.0,0.0,0.0,0.0,0.0,0.0,0.0,0.0,2.0,0.0,2.0,22.0,0.0,22.0
121,"Atitalaquia, Hidalgo",20.0597395,-99.21328819731298,municipio,"Pachuca de Soto, Hgo.",1.0,1.0,2.0,5.0,0.0,5.0,0.0,0.0,0.0,19.0,1.0,20.0,0.0,3.0,3.0,5.0,1.0,6.0,0.0,0.0,0.0,1.0,0.0,1.0,0.0,0.0,0.0,1.0,0.0,1.0,0.0,4.0,4.0,0.0,0.0,0.0,32.0,10.0,42.0
122,"Chapulhuacán, Hidalgo",21.1263192,-98.95211915598163,municipio,"Tepeapulco, Hgo.",16.0,0.0,16.0,13.0,3.0,16.0,2.0,0.0,2.0,1.0,0.0,1.0,0.0,0.0,0.0,0.0,0.0,0.0,0.0,0.0,0.0,0.0,0.0,0.0,0.0,0.0,0.0,0.0,0.0,0.0,0.0,0.0,0.0,0.0,0.0,0.0,32.0,3.0,35.0
123,"Emiliano Zapata, Hidalgo",19.6546865,-98.544552,municipio,"Tepeji del Río de Ocampo, Hgo.",102.0,0.0,102.0,58.0,46.0,104.0,48.0,30.0,78.0,72.0,23.0,95.0,0.0,0.0,0.0,0.0,0.0,0.0,343.0,0.0,343.0,52.0,8.0,60.0,6.0,0.0,6.0,0.0,0.0,0.0,0.0,0.0,0.0,0.0,0.0,0.0,681.0,107.0,788.0
124,"Epazoyucan, Hidalgo",20.0181268,-98.6364294,municipio,"Tizayuca, Hgo.",0.0,0.0,0.0,0.0,0.0,0.0,1.0,0.0,1.0,1.0,0.0,1.0,0.0,0.0,0.0,0.0,0.0,0.0,0.0,0.0,0.0,0.0,0.0,0.0,0.0,0.0,0.0,0.0,0.0,0.0,0.0,0.0,0.0,13.0,0.0,13.0,15.0,0.0,15.0
125,"Huasca de Ocampo, Hidalgo",20.2231549,-98.5552467331717,municipio,"Tula de Allende, Hgo.",3.0,0.0,3.0,26.0,21.0,47.0,2.0,0.0,2.0,0.0,0.0,0.0,0.0,0.0,0.0,0.0,0.0,0.0,0.0,0.0,0.0,0.0,0.0,0.0,0.0,0.0,0.0,24.0,0.0,24.0,0.0,0.0,0.0,0.0,0.0,0.0,55.0,21.0,76.0
126,"Ixmiquilpan, Hidalgo",20.481944,-99.218056,municipio,"Tulancingo de Bravo, Hgo.",0.0,0.0,0.0,0.0,0.0,0.0,5.0,0.0,5.0,4.0,0.0,4.0,0.0,0.0,0.0,1.0,0.0,1.0,2.0,0.0,2.0,0.0,0.0,0.0,0.0,0.0,0.0,0.0,0.0,0.0,1.0,0.0,1.0,6.0,0.0,6.0,19.0,0.0,19.0
127,"Mineral de la Reforma, Hidalgo",20.06063885,-98.73057242363193,municipio,"Villa de Tezontepec, Hgo.",8.0,0.0,8.0,3.0,0.0,3.0,6.0,0.0,6.0,0.0,0.0,0.0,0.0,0.0,0.0,0.0,0.0,0.0,0.0,0.0,0.0,0.0,0.0,0.0,0.0,0.0,0.0,0.0,0.0,0.0,0.0,0.0,0.0,0.0,0.0,0.0,17.0,0.0,17.0
128,"Pachuca de Soto, Hidalgo",20.1165413,-98.7413535,municipio,"El Salto, Jal.",0.0,0.0,0.0,0.0,0.0,0.0,0.0,0.0,0.0,1.0,0.0,1.0,0.0,0.0,0.0,0.0,0.0,0.0,0.0,0.0,0.0,0.0,0.0,0.0,0.0,0.0,0.0,0.0,0.0,0.0,0.0,0.0,0.0,0.0,0.0,0.0,1.0,0.0,1.0
129,"Tepeapulco, Hidalgo",19.7875962,-98.5522855,municipio,"Guadalajara, Jal.",214.0,0.0,214.0,327.0,0.0,327.0,257.0,0.0,257.0,2.0,0.0,2.0,1.0,0.0,1.0,0.0,0.0,0.0,123.0,0.0,123.0,381.0,0.0,381.0,2.0,0.0,2.0,0.0,0.0,0.0,5.0,0.0,5.0,1.0,0.0,1.0,1313.0,0.0,1313.0
130,"Tepeji del Río de Ocampo, Hidalgo",19.89368265,-99.34871815266254,municipio,"Tlajomulco de Zúñiga, Jal.",0.0,0.0,0.0,0.0,0.0,0.0,0.0,0.0,0.0,103.0,0.0,103.0,0.0,0.0,0.0,0.0,0.0,0.0,0.0,0.0,0.0,10.0,0.0,10.0,0.0,0.0,0.0,0.0,0.0,0.0,0.0,0.0,0.0,0.0,0.0,0.0,113.0,0.0,113.0
131,"Tizayuca, Hidalgo",19.841245,-98.9815648,municipio,"Zapotlán el Grande, Jal.",0.0,0.0,0.0,0.0,0.0,0.0,0.0,0.0,0.0,1.0,0.0,1.0,0.0,0.0,0.0,0.0,0.0,0.0,0.0,0.0,0.0,0.0,0.0,0.0,0.0,0.0,0.0,0.0,0.0,0.0,0.0,0.0,0.0,0.0,0.0,0.0,1.0,0.0,1.0
132,"Tolcayuca, Hidalgo",19.956667,-98.920278,municipio,"Álvaro Obregón, Mich.",0.0,0.0,0.0,0.0,0.0,0.0,0.0,0.0,0.0,0.0,0.0,0.0,0.0,1.0,1.0,0.0,0.0,0.0,0.0,0.0,0.0,0.0,0.0,0.0,0.0,0.0,0.0,0.0,0.0,0.0,0.0,0.0,0.0,0.0,0.0,0.0,0.0,1.0,1.0
133,"Tula de Allende, Hidalgo",20.0489487,-99.37295616011426,municipio,"Apatzingán, Mich.",0.0,0.0,0.0,0.0,1.0,1.0,0.0,0.0,0.0,0.0,0.0,0.0,0.0,0.0,0.0,0.0,0.0,0.0,0.0,0.0,0.0,0.0,0.0,0.0,0.0,0.0,0.0,0.0,0.0,0.0,0.0,0.0,0.0,0.0,0.0,0.0,0.0,1.0,1.0
134,"Tulancingo de Bravo, Hidalgo",20.0792094,-98.3475328,municipio,"Buenavista, Mich.",0.0,0.0,0.0,0.0,0.0,0.0,0.0,0.0,0.0,0.0,0.0,0.0,0.0,0.0,0.0,0.0,0.0,0.0,0.0,0.0,0.0,0.0,0.0,0.0,0.0,0.0,0.0,1.0,0.0,1.0,0.0,0.0,0.0,0.0,0.0,0.0,1.0,0.0,1.0
135,"Villa de Tezontepec, Hidalgo",19.9143587,-98.80032767789965,municipio,"Charo, Mich.",0.0,0.0,0.0,4.0,0.0,4.0,0.0,0.0,0.0,0.0,0.0,0.0,0.0,0.0,0.0,0.0,0.0,0.0,0.0,0.0,0.0,0.0,0.0,0.0,0.0,0.0,0.0,0.0,0.0,0.0,0.0,0.0,0.0,0.0,0.0,0.0,4.0,0.0,4.0
136,"El Salto, Jalisco",20.5196964,-103.1813141,municipio,"Cuitzeo, Mich.",0.0,0.0,0.0,0.0,0.0,0.0,0.0,0.0,0.0,0.0,0.0,0.0,0.0,0.0,0.0,0.0,0.0,0.0,0.0,0.0,0.0,0.0,0.0,0.0,0.0,0.0,0.0,1.0,0.0,1.0,0.0,0.0,0.0,0.0,0.0,0.0,1.0,0.0,1.0
137,"Guadalajara, Jalisco",20.6720375,-103.338396,municipio,"Lázaro Cárdenas, Mich.",1.0,0.0,1.0,0.0,0.0,0.0,0.0,0.0,0.0,0.0,0.0,0.0,0.0,0.0,0.0,0.0,0.0,0.0,0.0,0.0,0.0,0.0,0.0,0.0,0.0,0.0,0.0,0.0,0.0,0.0,0.0,0.0,0.0,0.0,0.0,0.0,1.0,0.0,1.0
138,"Tlajomulco de Zúñiga, Jalisco",20.48187375,-103.40050966382874,municipio,"Morelia, Mich.",1.0,1.0,2.0,1.0,2.0,3.0,3.0,0.0,3.0,0.0,1.0,1.0,1.0,0.0,1.0,0.0,0.0,0.0,0.0,0.0,0.0,2.0,0.0,2.0,4.0,0.0,4.0,2.0,0.0,2.0,90.0,28.0,118.0,0.0,0.0,0.0,104.0,32.0,136.0
139,"Zapotlán el Grande, Jalisco",19.6973465,-103.51064802186409,municipio,"Uruapan, Mich.",0.0,0.0,0.0,0.0,0.0,0.0,0.0,0.0,0.0,0.0,0.0,0.0,1.0,0.0,1.0,0.0,0.0,0.0,0.0,0.0,0.0,0.0,0.0,0.0,0.0,0.0,0.0,0.0,0.0,0.0,0.0,0.0,0.0,0.0,0.0,0.0,1.0,0.0,1.0
140,"Apatzingán, Michoacán",19.0913792,-102.3537356,municipio,"Zinapécuaro, Mich.",0.0,0.0,0.0,0.0,14.0,14.0,0.0,0.0,0.0,7.0,0.0,7.0,0.0,0.0,0.0,7.0,0.0,7.0,0.0,0.0,0.0,5.0,5.0,10.0,5.0,0.0,5.0,59.0,2.0,61.0,18.0,2.0,20.0,41.0,11.0,52.0,142.0,34.0,176.0
141,"Buenavista, Michoacán",19.21451245,-102.55515798507564,municipio,"Cuautla, Mor.",0.0,0.0,0.0,0.0,0.0,0.0,0.0,0.0,0.0,0.0,0.0,0.0,0.0,0.0,0.0,0.0,0.0,0.0,1.0,0.0,1.0,0.0,0.0,0.0,0.0,0.0,0.0,0.0,0.0,0.0,0.0,0.0,0.0,0.0,0.0,0.0,1.0,0.0,1.0
142,"Cuitzeo, Michoacán",19.9693141,-101.1412203,municipio,"Cuernavaca, Mor.",8.0,0.0,8.0,1.0,0.0,1.0,1.0,0.0,1.0,1.0,0.0,1.0,0.0,0.0,0.0,0.0,0.0,0.0,0.0,3.0,3.0,2.0,0.0,2.0,0.0,0.0,0.0,0.0,3.0,3.0,0.0,0.0,0.0,0.0,0.0,0.0,13.0,6.0,19.0
143,"Lázaro Cárdenas, Michoacán",17.9594769,-102.198659,municipio,"Emiliano Zapata, Mor.",0.0,0.0,0.0,0.0,0.0,0.0,0.0,0.0,0.0,0.0,0.0,0.0,1.0,0.0,1.0,0.0,0.0,0.0,1.0,0.0,1.0,0.0,0.0,0.0,2.0,0.0,2.0,0.0,0.0,0.0,0.0,0.0,0.0,0.0,0.0,0.0,4.0,0.0,4.0
144,"Morelia, Michoacán",19.7027116,-101.1923818,municipio,"Jantetelco, Mor.",0.0,0.0,0.0,0.0,0.0,0.0,2.0,0.0,2.0,0.0,0.0,0.0,0.0,0.0,0.0,0.0,0.0,0.0,1.0,0.0,1.0,0.0,0.0,0.0,0.0,0.0,0.0,0.0,0.0,0.0,0.0,0.0,0.0,0.0,0.0,0.0,3.0,0.0,3.0
145,"Uruapan, Michoacán",19.4147269,-102.0522647,municipio,"Puente de Ixtla, Mor.",0.0,0.0,0.0,2.0,0.0,2.0,4.0,0.0,4.0,0.0,0.0,0.0,0.0,0.0,0.0,0.0,0.0,0.0,0.0,0.0,0.0,0.0,0.0,0.0,1.0,0.0,1.0,1.0,0.0,1.0,0.0,0.0,0.0,0.0,0.0,0.0,8.0,0.0,8.0
146,"Zinapécuaro, Michoacán",19.856318100000003,-100.7709097129878,municipio,"Temixco, Mor.",0.0,0.0,0.0,0.0,0.0,0.0,0.0,0.0,0.0,0.0,0.0,0.0,2.0,0.0,2.0,0.0,0.0,0.0,2.0,0.0,2.0,2.0,0.0,2.0,1.0,0.0,1.0,0.0,0.0,0.0,0.0,0.0,0.0,0.0,0.0,0.0,7.0,0.0,7.0
147,"Cuernavaca, Morelos",18.9218274,-99.2342282,municipio,"Tepoztlán, Mor.",0.0,0.0,0.0,1.0,0.0,1.0,0.0,0.0,0.0,0.0,0.0,0.0,0.0,0.0,0.0,0.0,0.0,0.0,0.0,0.0,0.0,0.0,0.0,0.0,0.0,0.0,0.0,0.0,0.0,0.0,0.0,0.0,0.0,0.0,0.0,0.0,1.0,0.0,1.0
148,"Emiliano Zapata, Morelos",18.83995,-99.1870274,municipio,"Xochitepec, Mor.",0.0,0.0,0.0,0.0,0.0,0.0,0.0,0.0,0.0,0.0,0.0,0.0,0.0,0.0,0.0,1.0,0.0,1.0,0.0,0.0,0.0,1.0,0.0,1.0,0.0,0.0,0.0,0.0,0.0,0.0,0.0,0.0,0.0,1.0,0.0,1.0,3.0,0.0,3.0
149,"Jantetelco, Morelos",18.7167516,-98.7766172,municipio,"Bahía de Banderas, Nay.",0.0,0.0,0.0,0.0,0.0,0.0,0.0,0.0,0.0,0.0,0.0,0.0,0.0,0.0,0.0,0.0,0.0,0.0,0.0,0.0,0.0,0.0,0.0,0.0,1.0,0.0,1.0,0.0,0.0,0.0,0.0,0.0,0.0,1.0,0.0,1.0,2.0,0.0,2.0
150,"Puente de Ixtla, Morelos",18.6171111,-99.3192092,municipio,"Tepic, Nay.",26.0,0.0,26.0,12.0,2.0,14.0,42.0,7.0,49.0,1.0,0.0,1.0,9.0,3.0,12.0,9.0,0.0,9.0,29.0,4.0,33.0,0.0,0.0,0.0,9.0,31.0,40.0,1.0,0.0,1.0,25.0,9.0,34.0,0.0,0.0,0.0,163.0,56.0,219.0
151,"Temixco, Morelos",18.8449428,-99.2236369,municipio,"Anáhuac, NL",21.0,1.0,22.0,0.0,0.0,0.0,0.0,0.0,0.0,0.0,0.0,0.0,0.0,0.0,0.0,1.0,0.0,1.0,0.0,0.0,0.0,57.0,3.0,60.0,0.0,0.0,0.0,0.0,3.0,3.0,0.0,0.0,0.0,0.0,0.0,0.0,79.0,7.0,86.0
152,"Tepoztlán, Morelos",18.9914959,-99.10254532724872,municipio,"Apodaca, NL",151.0,61.0,212.0,134.0,54.0,188.0,543.0,301.0,844.0,92.0,18.0,110.0,120.0,10.0,130.0,102.0,26.0,128.0,125.0,181.0,306.0,104.0,262.0,366.0,159.0,214.0,373.0,189.0,184.0,373.0,476.0,318.0,794.0,234.0,197.0,431.0,2429.0,1826.0,4255.0
153,"Xochitepec, Morelos",18.7831747,-99.2308448,municipio,"Aramberri, NL",3.0,0.0,3.0,0.0,0.0,0.0,0.0,0.0,0.0,0.0,0.0,0.0,1.0,0.0,1.0,0.0,0.0,0.0,0.0,0.0,0.0,0.0,0.0,0.0,0.0,0.0,0.0,0.0,0.0,0.0,0.0,0.0,0.0,0.0,0.0,0.0,4.0,0.0,4.0
154,"Bahía de Banderas, Nayarit",20.8290434,-105.31750873696538,municipio,"Cadereyta Jiménez, NL",0.0,6.0,6.0,3.0,23.0,26.0,1.0,0.0,1.0,0.0,0.0,0.0,0.0,0.0,0.0,0.0,0.0,0.0,1.0,0.0,1.0,0.0,0.0,0.0,0.0,0.0,0.0,0.0,0.0,0.0,6.0,42.0,48.0,1.0,0.0,1.0,12.0,71.0,83.0
155,"Tepic, Nayarit",21.5119156,-104.8915889,municipio,"China, NL",0.0,0.0,0.0,0.0,0.0,0.0,49.0,75.0,124.0,0.0,0.0,0.0,0.0,0.0,0.0,0.0,0.0,0.0,0.0,0.0,0.0,0.0,2.0,2.0,6.0,14.0,20.0,0.0,0.0,0.0,0.0,0.0,0.0,0.0,0.0,0.0,55.0,91.0,146.0
156,"Anáhuac, Nuevo León",27.0285283,-100.0333715,municipio,"Ciénega de Flores, NL",3.0,2.0,5.0,5.0,3.0,8.0,5.0,4.0,9.0,1.0,0.0,1.0,0.0,0.0,0.0,0.0,0.0,0.0,0.0,0.0,0.0,0.0,0.0,0.0,1.0,0.0,1.0,1.0,0.0,1.0,8.0,8.0,16.0,0.0,0.0,0.0,24.0,17.0,41.0
157,"Apodaca, Nuevo León",25.7816542,-100.1887501,municipio,"Doctor Arroyo, NL",0.0,0.0,0.0,0.0,0.0,0.0,0.0,0.0,0.0,0.0,0.0,0.0,11.0,0.0,11.0,0.0,0.0,0.0,0.0,0.0,0.0,0.0,0.0,0.0,0.0,0.0,0.0,0.0,0.0,0.0,0.0,0.0,0.0,0.0,0.0,0.0,11.0,0.0,11.0
158,"Aramberri, Nuevo León",24.1028828,-99.8178742,municipio,"El Carmen, NL",0.0,0.0,0.0,0.0,0.0,0.0,0.0,0.0,0.0,0.0,0.0,0.0,0.0,0.0,0.0,4.0,30.0,34.0,0.0,0.0,0.0,0.0,1.0,1.0,0.0,0.0,0.0,0.0,0.0,0.0,0.0,0.0,0.0,0.0,0.0,0.0,4.0,31.0,35.0
159,"Cadereyta Jiménez, Nuevo León",25.517337,-99.8711735172066,municipio,"Galeana, NL",133.0,64.0,197.0,144.0,147.0,291.0,308.0,289.0,597.0,183.0,54.0,237.0,51.0,4.0,55.0,46.0,44.0,90.0,173.0,371.0,544.0,255.0,394.0,649.0,259.0,229.0,488.0,537.0,359.0,896.0,701.0,198.0,899.0,275.0,176.0,451.0,3065.0,2329.0,5394.0
160,"China, Nuevo León",25.4915799,-98.98111150455688,municipio,"García, NL",2.0,0.0,2.0,0.0,0.0,0.0,0.0,0.0,0.0,1.0,0.0,1.0,1.0,0.0,1.0,1.0,0.0,1.0,0.0,0.0,0.0,0.0,2.0,2.0,0.0,0.0,0.0,0.0,0.0,0.0,2.0,1.0,3.0,1.0,6.0,7.0,8.0,9.0,17.0
161,"Ciénega de Flores, Nuevo León",25.956169,-100.1662028,municipio,"General Bravo, NL",37.0,46.0,83.0,156.0,210.0,366.0,241.0,230.0,471.0,35.0,14.0,49.0,60.0,74.0,134.0,27.0,14.0,41.0,43.0,35.0,78.0,106.0,135.0,241.0,66.0,114.0,180.0,79.0,232.0,311.0,31.0,71.0,102.0,0.0,0.0,0.0,881.0,1175.0,2056.0
162,"Doctor Arroyo, Nuevo León",23.80420455,-100.22566349807497,municipio,"General Escobedo, NL",9.0,0.0,9.0,0.0,0.0,0.0,2.0,4.0,6.0,0.0,0.0,0.0,20.0,2.0,22.0,1.0,0.0,1.0,2.0,0.0,2.0,0.0,0.0,0.0,252.0,161.0,413.0,85.0,147.0,232.0,28.0,71.0,99.0,141.0,279.0,420.0,540.0,664.0,1204.0
163,"El Carmen, Nuevo León",25.9368419,-100.3613419,municipio,"General Zuazua, NL",0.0,0.0,0.0,0.0,0.0,0.0,0.0,0.0,0.0,0.0,0.0,0.0,0.0,0.0,0.0,0.0,0.0,0.0,1.0,0.0,1.0,0.0,4.0,4.0,8.0,22.0,30.0,0.0,0.0,0.0,0.0,0.0,0.0,0.0,0.0,0.0,9.0,26.0,35.0
164,"Galeana, Nuevo León",24.758306,-100.38135131017378,municipio,"Guadalupe, NL",16.0,14.0,30.0,8.0,4.0,12.0,14.0,4.0,18.0,20.0,5.0,25.0,21.0,0.0,21.0,10.0,7.0,17.0,7.0,3.0,10.0,33.0,3.0,36.0,25.0,11.0,36.0,3.0,0.0,3.0,1.0,9.0,10.0,2.0,3.0,5.0,160.0,63.0,223.0
165,"García, Nuevo León",25.6651753,-100.4018251,municipio,"Hualahuises, NL",0.0,0.0,0.0,0.0,0.0,0.0,0.0,0.0,0.0,0.0,0.0,0.0,26.0,8.0,34.0,0.0,0.0,0.0,0.0,0.0,0.0,0.0,0.0,0.0,0.0,0.0,0.0,0.0,0.0,0.0,0.0,0.0,0.0,0.0,0.0,0.0,26.0,8.0,34.0
166,"General Bravo, Nuevo León",25.7932962,-99.1811424,municipio,"Juárez, NL",56.0,22.0,78.0,0.0,0.0,0.0,58.0,35.0,93.0,8.0,0.0,8.0,0.0,0.0,0.0,0.0,0.0,0.0,0.0,0.0,0.0,0.0,0.0,0.0,0.0,0.0,0.0,0.0,0.0,0.0,0.0,0.0,0.0,1.0,0.0,1.0,123.0,57.0,180.0
167,"General Escobedo, Nuevo León",25.808517,-100.3224334,municipio,"Linares, NL",0.0,0.0,0.0,0.0,0.0,0.0,0.0,0.0,0.0,0.0,0.0,0.0,0.0,0.0,0.0,0.0,0.0,0.0,0.0,0.0,0.0,0.0,12.0,12.0,1.0,0.0,1.0,0.0,0.0,0.0,0.0,6.0,6.0,0.0,0.0,0.0,1.0,18.0,19.0
168,"General Zuazua, Nuevo León",25.8953873,-100.1078021,municipio,"Los Ramones, NL",0.0,0.0,0.0,0.0,0.0,0.0,0.0,0.0,0.0,0.0,0.0,0.0,0.0,0.0,0.0,0.0,0.0,0.0,0.0,0.0,0.0,0.0,0.0,0.0,0.0,0.0,0.0,0.0,7.0,7.0,0.0,0.0,0.0,0.0,0.0,0.0,0.0,7.0,7.0
169,"Guadalupe, Nuevo León",25.6751114,-100.2151753,municipio,"Mina, NL",108.0,49.0,157.0,85.0,80.0,165.0,90.0,96.0,186.0,18.0,8.0,26.0,16.0,0.0,16.0,81.0,66.0,147.0,167.0,190.0,357.0,97.0,145.0,242.0,78.0,104.0,182.0,93.0,39.0,132.0,92.0,92.0,184.0,393.0,156.0,549.0,1318.0,1025.0,2343.0
170,"Hualahuises, Nuevo León",24.8838044,-99.6739794,municipio,"Montemorelos, NL",0.0,0.0,0.0,0.0,0.0,0.0,1.0,0.0,1.0,0.0,0.0,0.0,0.0,0.0,0.0,0.0,0.0,0.0,0.0,0.0,0.0,0.0,0.0,0.0,0.0,0.0,0.0,0.0,0.0,0.0,0.0,0.0,0.0,0.0,0.0,0.0,1.0,0.0,1.0
171,"Juárez, Nuevo León",25.6467011,-100.0907766,municipio,"Monterrey, NL",6.0,4.0,10.0,1.0,8.0,9.0,7.0,5.0,12.0,25.0,7.0,32.0,18.0,0.0,18.0,29.0,7.0,36.0,2.0,0.0,2.0,26.0,46.0,72.0,57.0,9.0,66.0,9.0,11.0,20.0,18.0,1.0,19.0,121.0,29.0,150.0,319.0,127.0,446.0
172,"Linares, Nuevo León",24.8596282,-99.5684539,municipio,"Parás, NL",0.0,0.0,0.0,0.0,0.0,0.0,0.0,0.0,0.0,0.0,0.0,0.0,0.0,0.0,0.0,0.0,0.0,0.0,0.0,0.0,0.0,0.0,0.0,0.0,0.0,0.0,0.0,0.0,13.0,13.0,0.0,0.0,0.0,0.0,0.0,0.0,0.0,13.0,13.0
173,"Los Ramones, Nuevo León",25.6973768,-99.6250811,municipio,"Pesquería, NL",0.0,0.0,0.0,0.0,0.0,0.0,11.0,13.0,24.0,0.0,0.0,0.0,36.0,0.0,36.0,0.0,8.0,8.0,0.0,0.0,0.0,0.0,13.0,13.0,4.0,5.0,9.0,3.0,0.0,3.0,0.0,0.0,0.0,0.0,0.0,0.0,54.0,39.0,93.0
174,"Mina, Nuevo León",26.0025145,-100.5300485,municipio,"Salinas Victoria, NL",0.0,0.0,0.0,0.0,0.0,0.0,0.0,0.0,0.0,2.0,0.0,2.0,9.0,0.0,9.0,6.0,0.0,6.0,0.0,0.0,0.0,0.0,0.0,0.0,0.0,0.0,0.0,0.0,0.0,0.0,1.0,0.0,1.0,0.0,0.0,0.0,18.0,0.0,18.0
175,"Montemorelos, Nuevo León",25.1886604,-99.8293539,municipio,"San Nicolás de los Garza, NL",0.0,0.0,0.0,0.0,0.0,0.0,26.0,7.0,33.0,0.0,0.0,0.0,16.0,0.0,16.0,0.0,0.0,0.0,1.0,0.0,1.0,0.0,0.0,0.0,0.0,0.0,0.0,0.0,0.0,0.0,0.0,0.0,0.0,0.0,0.0,0.0,43.0,7.0,50.0
176,"Monterrey, Nuevo León",25.6802019,-100.315258,municipio,"San Pedro Garza García, NL",1.0,0.0,1.0,0.0,0.0,0.0,0.0,0.0,0.0,0.0,0.0,0.0,0.0,0.0,0.0,0.0,0.0,0.0,0.0,0.0,0.0,0.0,0.0,0.0,0.0,0.0,0.0,0.0,0.0,0.0,0.0,0.0,0.0,0.0,0.0,0.0,1.0,0.0,1.0
177,"Parás, Nuevo León",26.4993853,-99.5229954,municipio,"Santa Catarina, NL",6.0,6.0,12.0,0.0,0.0,0.0,0.0,0.0,0.0,30.0,13.0,43.0,0.0,0.0,0.0,0.0,0.0,0.0,0.0,0.0,0.0,0.0,5.0,5.0,18.0,36.0,54.0,8.0,22.0,30.0,1.0,21.0,22.0,1.0,0.0,1.0,64.0,103.0,167.0
178,"Pesquería, Nuevo León",25.7851361,-100.0520621,municipio,"Santiago, NL",0.0,0.0,0.0,0.0,0.0,0.0,5.0,10.0,15.0,0.0,0.0,0.0,1.0,0.0,1.0,1.0,0.0,1.0,0.0,0.0,0.0,5.0,0.0,5.0,0.0,0.0,0.0,0.0,0.0,0.0,1.0,0.0,1.0,0.0,0.0,0.0,13.0,10.0,23.0
179,"Salinas Victoria, Nuevo León",26.1216805,-100.3270876995874,municipio,"Asunción Nochixtlán, Oax.",0.0,0.0,0.0,0.0,0.0,0.0,0.0,0.0,0.0,0.0,0.0,0.0,0.0,0.0,0.0,0.0,0.0,0.0,2.0,0.0,2.0,0.0,0.0,0.0,6.0,5.0,11.0,0.0,0.0,0.0,0.0,0.0,0.0,0.0,0.0,0.0,8.0,5.0,13.0
180,"San Nicolás de los Garza, Nuevo León",25.7558021,-100.289648,municipio,"Chahuites, Oax.",0.0,0.0,0.0,0.0,0.0,0.0,0.0,0.0,0.0,3.0,0.0,3.0,0.0,0.0,0.0,0.0,0.0,0.0,0.0,0.0,0.0,0.0,0.0,0.0,0.0,0.0,0.0,0.0,0.0,0.0,51.0,0.0,51.0,0.0,0.0,0.0,54.0,0.0,54.0
181,"San Pedro Garza García, Nuevo León",25.6651753,-100.4018251,municipio,"Ciudad Ixtepec, Oax.",1.0,0.0,1.0,0.0,0.0,0.0,1.0,0.0,1.0,4.0,0.0,4.0,0.0,0.0,0.0,1.0,0.0,1.0,0.0,0.0,0.0,1.0,0.0,1.0,0.0,0.0,0.0,0.0,0.0,0.0,1.0,0.0,1.0,0.0,1.0,1.0,9.0,1.0,10.0
182,"Santa Catarina, Nuevo León",25.6745052,-100.4616371,municipio,"Concepción Buenavista, Oax.",0.0,0.0,0.0,0.0,0.0,0.0,0.0,0.0,0.0,0.0,0.0,0.0,0.0,0.0,0.0,0.0,0.0,0.0,0.0,0.0,0.0,0.0,0.0,0.0,0.0,25.0,25.0,0.0,0.0,0.0,0.0,0.0,0.0,0.0,0.0,0.0,0.0,25.0,25.0
183,"Santiago, Nuevo León",25.4243595,-100.1513376,municipio,"El Espinal, Oax.",0.0,0.0,0.0,0.0,0.0,0.0,0.0,0.0,0.0,0.0,0.0,0.0,0.0,0.0,0.0,0.0,0.0,0.0,0.0,0.0,0.0,4.0,0.0,4.0,0.0,0.0,0.0,0.0,0.0,0.0,0.0,0.0,0.0,6.0,0.0,6.0,10.0,0.0,10.0
184,"Asunción Nochixtlán, Oaxaca",17.457222,-97.225,municipio,"Heroica Ciudad de Huajuapan de León, Oax.",0.0,0.0,0.0,3.0,0.0,3.0,0.0,2.0,2.0,0.0,0.0,0.0,0.0,0.0,0.0,0.0,0.0,0.0,0.0,0.0,0.0,3.0,0.0,3.0,3.0,0.0,3.0,0.0,0.0,0.0,0.0,3.0,3.0,18.0,14.0,32.0,27.0,19.0,46.0
185,"Chahuites, Oaxaca",16.2885299,-94.1942777,municipio,"Juchitán de Zaragoza, Oax.",249.0,108.0,357.0,434.0,136.0,570.0,602.0,187.0,789.0,490.0,154.0,644.0,74.0,36.0,110.0,18.0,53.0,71.0,0.0,0.0,0.0,0.0,0.0,0.0,9.0,0.0,9.0,15.0,2.0,17.0,48.0,6.0,54.0,4.0,0.0,4.0,1943.0,682.0,2625.0
186,"Ciudad Ixtepec, Oaxaca",16.5564139,-95.0959653,municipio,"Matías Romero Avendaño, Oax.",20.0,22.0,42.0,0.0,35.0,35.0,0.0,0.0,0.0,0.0,0.0,0.0,0.0,0.0,0.0,1.0,0.0,1.0,0.0,2.0,2.0,23.0,37.0,60.0,0.0,0.0,0.0,0.0,0.0,0.0,0.0,17.0,17.0,0.0,0.0,0.0,44.0,113.0,157.0
187,"Concepción Buenavista, Oaxaca",17.8781515,-97.4004708,municipio,"Miahuatlán de Porfirio Díaz, Oax.",0.0,0.0,0.0,0.0,0.0,0.0,1.0,0.0,1.0,1.0,0.0,1.0,0.0,0.0,0.0,0.0,0.0,0.0,6.0,0.0,6.0,3.0,0.0,3.0,0.0,0.0,0.0,1.0,0.0,1.0,0.0,0.0,0.0,0.0,0.0,0.0,12.0,0.0,12.0
188,"El Espinal, Oaxaca",16.4609135,-95.05818330487185,municipio,"Oaxaca de Juárez, Oax.",17.0,2.0,19.0,14.0,3.0,17.0,16.0,11.0,27.0,23.0,25.0,48.0,6.0,0.0,6.0,93.0,28.0,121.0,39.0,23.0,62.0,51.0,278.0,329.0,11.0,15.0,26.0,6.0,147.0,153.0,188.0,102.0,290.0,102.0,17.0,119.0,566.0,651.0,1217.0
189,"Heroica Ciudad de Huajuapan de León, Oaxaca",17.808846,-97.7780564,municipio,"Salina Cruz, Oax.",0.0,0.0,0.0,0.0,0.0,0.0,10.0,4.0,14.0,0.0,0.0,0.0,0.0,0.0,0.0,3.0,0.0,3.0,0.0,0.0,0.0,0.0,18.0,18.0,0.0,20.0,20.0,32.0,18.0,50.0,27.0,23.0,50.0,0.0,0.0,0.0,72.0,83.0,155.0
190,"Juchitán de Zaragoza, Oaxaca",16.413328999999997,-94.9118794582709,municipio,"San Agustín de las Juntas, Oax.",1.0,0.0,1.0,0.0,0.0,0.0,0.0,0.0,0.0,0.0,0.0,0.0,0.0,0.0,0.0,0.0,0.0,0.0,0.0,0.0,0.0,0.0,0.0,0.0,0.0,0.0,0.0,1.0,0.0,1.0,0.0,0.0,0.0,0.0,0.0,0.0,2.0,0.0,2.0
191,"Matías Romero Avendaño, Oaxaca",16.8761133,-95.0405586,municipio,"San Andrés Huaxpaltepec, Oax.",0.0,0.0,0.0,31.0,0.0,31.0,0.0,0.0,0.0,0.0,0.0,0.0,0.0,0.0,0.0,0.0,0.0,0.0,0.0,0.0,0.0,0.0,0.0,0.0,0.0,0.0,0.0,0.0,0.0,0.0,0.0,0.0,0.0,0.0,0.0,0.0,31.0,0.0,31.0
192,"Miahuatlán de Porfirio Díaz, Oaxaca",16.3610815,-96.5850578538718,municipio,"San Antonio de la Cal, Oax.",0.0,0.0,0.0,0.0,0.0,0.0,0.0,0.0,0.0,0.0,0.0,0.0,0.0,0.0,0.0,0.0,0.0,0.0,0.0,0.0,0.0,0.0,0.0,0.0,0.0,0.0,0.0,1.0,0.0,1.0,0.0,0.0,0.0,0.0,0.0,0.0,1.0,0.0,1.0
193,"Oaxaca de Juárez, Oaxaca",17.0604663,-96.7253575,municipio,"San Bartolo Coyotepec, Oax.",0.0,0.0,0.0,0.0,0.0,0.0,0.0,0.0,0.0,0.0,0.0,0.0,0.0,0.0,0.0,0.0,0.0,0.0,0.0,0.0,0.0,0.0,0.0,0.0,0.0,0.0,0.0,5.0,0.0,5.0,0.0,0.0,0.0,0.0,0.0,0.0,5.0,0.0,5.0
194,"Salina Cruz, Oaxaca",16.1825,-95.195833,municipio,"San Bartolo Soyaltepec, Oax.",0.0,0.0,0.0,0.0,0.0,0.0,0.0,0.0,0.0,0.0,0.0,0.0,0.0,0.0,0.0,0.0,0.0,0.0,0.0,0.0,0.0,0.0,0.0,0.0,0.0,0.0,0.0,0.0,36.0,36.0,0.0,0.0,0.0,0.0,0.0,0.0,0.0,36.0,36.0
195,"San Agustín de las Juntas, Oaxaca",17.005436,-96.7092291,municipio,"San Cristóbal Suchixtlahuaca, Oax.",0.0,0.0,0.0,0.0,0.0,0.0,0.0,0.0,0.0,0.0,0.0,0.0,0.0,0.0,0.0,0.0,0.0,0.0,0.0,0.0,0.0,4.0,0.0,4.0,0.0,0.0,0.0,0.0,0.0,0.0,0.0,0.0,0.0,0.0,0.0,0.0,4.0,0.0,4.0
196,"San Andrés Huaxpaltepec, Oaxaca",16.3411829,-97.93462519426676,municipio,"San Dionisio Ocotepec, Oax.",0.0,0.0,0.0,0.0,0.0,0.0,0.0,0.0,0.0,7.0,0.0,7.0,0.0,0.0,0.0,0.0,0.0,0.0,0.0,0.0,0.0,0.0,0.0,0.0,0.0,0.0,0.0,0.0,0.0,0.0,0.0,0.0,0.0,0.0,0.0,0.0,7.0,0.0,7.0
197,"San Antonio de la Cal, Oaxaca",17.028333,-96.700556,municipio,"San Francisco Telixtlahuaca, Oax.",0.0,0.0,0.0,0.0,0.0,0.0,0.0,0.0,0.0,0.0,0.0,0.0,0.0,0.0,0.0,0.0,0.0,0.0,0.0,0.0,0.0,0.0,0.0,0.0,0.0,0.0,0.0,0.0,0.0,0.0,33.0,0.0,33.0,16.0,0.0,16.0,49.0,0.0,49.0
198,"San Bartolo Coyotepec, Oaxaca",16.9575983,-96.7066199,municipio,"San Jacinto Amilpas, Oax.",0.0,0.0,0.0,0.0,0.0,0.0,0.0,0.0,0.0,0.0,0.0,0.0,0.0,0.0,0.0,29.0,16.0,45.0,0.0,0.0,0.0,0.0,0.0,0.0,0.0,0.0,0.0,0.0,0.0,0.0,0.0,0.0,0.0,0.0,0.0,0.0,29.0,16.0,45.0
199,"San Bartolo Soyaltepec, Oaxaca",17.57706925,-97.31194366093106,municipio,"San José Tenango, Oax.",0.0,0.0,0.0,0.0,6.0,6.0,0.0,0.0,0.0,0.0,0.0,0.0,0.0,0.0,0.0,0.0,0.0,0.0,0.0,0.0,0.0,0.0,109.0,109.0,0.0,0.0,0.0,0.0,0.0,0.0,0.0,0.0,0.0,0.0,0.0,0.0,0.0,115.0,115.0
200,"San Cristóbal Suchixtlahuaca, Oaxaca",17.7265261,-97.3666425,municipio,"San Juan Bautista Tuxtepec, Oax.",0.0,0.0,0.0,0.0,0.0,0.0,0.0,0.0,0.0,0.0,0.0,0.0,0.0,0.0,0.0,0.0,0.0,0.0,0.0,0.0,0.0,13.0,58.0,71.0,0.0,9.0,9.0,0.0,0.0,0.0,0.0,28.0,28.0,0.0,0.0,0.0,13.0,95.0,108.0
201,"San Dionisio Ocotepec, Oaxaca",16.7975187,-96.3960971,municipio,"San Lorenzo Cacaotepec, Oax.",0.0,0.0,0.0,0.0,0.0,0.0,0.0,0.0,0.0,0.0,2.0,2.0,0.0,0.0,0.0,0.0,0.0,0.0,0.0,0.0,0.0,0.0,0.0,0.0,0.0,0.0,0.0,0.0,0.0,0.0,0.0,0.0,0.0,0.0,0.0,0.0,0.0,2.0,2.0
202,"San Francisco Telixtlahuaca, Oaxaca",17.296628,-96.9056112,municipio,"San Pablo Etla, Oax.",0.0,0.0,0.0,29.0,0.0,29.0,0.0,0.0,0.0,6.0,0.0,6.0,0.0,0.0,0.0,0.0,0.0,0.0,0.0,0.0,0.0,0.0,0.0,0.0,0.0,0.0,0.0,0.0,0.0,0.0,0.0,0.0,0.0,0.0,0.0,0.0,35.0,0.0,35.0
203,"San Jacinto Amilpas, Oaxaca",17.1011376,-96.7606784,municipio,"San Pablo Huitzo, Oax.",81.0,0.0,81.0,39.0,10.0,49.0,4.0,0.0,4.0,81.0,25.0,106.0,3.0,0.0,3.0,23.0,3.0,26.0,65.0,0.0,65.0,3.0,1.0,4.0,87.0,10.0,97.0,114.0,43.0,157.0,103.0,11.0,114.0,22.0,0.0,22.0,625.0,103.0,728.0
204,"San José Tenango, Oaxaca",18.15,-96.716667,municipio,"San Pedro Ixtlahuaca, Oax.",0.0,0.0,0.0,0.0,0.0,0.0,0.0,0.0,0.0,0.0,0.0,0.0,0.0,0.0,0.0,0.0,0.0,0.0,0.0,0.0,0.0,0.0,0.0,0.0,1.0,0.0,1.0,0.0,0.0,0.0,0.0,0.0,0.0,0.0,0.0,0.0,1.0,0.0,1.0
205,"San Juan Bautista Tuxtepec, Oaxaca",18.0874632,-96.1227767,municipio,"San Pedro Mixtepec -Dto. 22 -, Oax.",0.0,0.0,0.0,1.0,0.0,1.0,1.0,0.0,1.0,0.0,0.0,0.0,0.0,0.0,0.0,0.0,0.0,0.0,0.0,0.0,0.0,0.0,0.0,0.0,1.0,0.0,1.0,0.0,0.0,0.0,0.0,0.0,0.0,0.0,0.0,0.0,3.0,0.0,3.0
206,"San Lorenzo Cacaotepec, Oaxaca",17.1278714,-96.8017692,municipio,"San Pedro Pochutla, Oax.",0.0,0.0,0.0,33.0,0.0,33.0,0.0,0.0,0.0,1.0,0.0,1.0,0.0,0.0,0.0,0.0,0.0,0.0,0.0,0.0,0.0,0.0,0.0,0.0,0.0,2.0,2.0,0.0,0.0,0.0,0.0,0.0,0.0,0.0,0.0,0.0,34.0,2.0,36.0
207,"San Miguel Tequixtepec, Oaxaca",17.801944,-97.340556,municipio,"San Pedro Tapanatepec, Oax.",16.0,6.0,22.0,58.0,70.0,128.0,15.0,37.0,52.0,10.0,17.0,27.0,0.0,0.0,0.0,0.0,0.0,0.0,0.0,6.0,6.0,0.0,8.0,8.0,3.0,1.0,4.0,9.0,1.0,10.0,1.0,16.0,17.0,9.0,0.0,9.0,121.0,162.0,283.0
208,"San Pablo Etla, Oaxaca",17.144444,-96.76,municipio,"San Pedro Totolápam, Oax.",6.0,0.0,6.0,14.0,0.0,14.0,0.0,0.0,0.0,0.0,0.0,0.0,0.0,0.0,0.0,0.0,0.0,0.0,0.0,0.0,0.0,0.0,0.0,0.0,0.0,0.0,0.0,0.0,0.0,0.0,0.0,0.0,0.0,0.0,0.0,0.0,20.0,0.0,20.0
209,"San Pablo Huitzo, Oaxaca",17.2777969,-96.8866692,municipio,"San Sebastián Tutla, Oax.",0.0,0.0,0.0,0.0,0.0,0.0,0.0,0.0,0.0,0.0,0.0,0.0,0.0,0.0,0.0,1.0,0.0,1.0,0.0,0.0,0.0,0.0,0.0,0.0,0.0,0.0,0.0,0.0,2.0,2.0,0.0,0.0,0.0,0.0,0.0,0.0,1.0,2.0,3.0
210,"San Pedro Ixtlahuaca, Oaxaca",17.063056,-96.818056,municipio,"Santa Cruz Xoxocotlán, Oax.",1.0,0.0,1.0,14.0,0.0,14.0,3.0,0.0,3.0,6.0,0.0,6.0,0.0,0.0,0.0,103.0,0.0,103.0,33.0,0.0,33.0,145.0,1.0,146.0,98.0,70.0,168.0,77.0,0.0,77.0,148.0,20.0,168.0,31.0,0.0,31.0,659.0,91.0,750.0
211,"San Pedro Mixtepec -Dto. 22 -, Oaxaca",16.271111,-96.2825,municipio,"Santa Lucía del Camino, Oax.",1.0,0.0,1.0,0.0,0.0,0.0,2.0,0.0,2.0,0.0,0.0,0.0,0.0,0.0,0.0,0.0,0.0,0.0,0.0,0.0,0.0,0.0,0.0,0.0,1.0,0.0,1.0,0.0,0.0,0.0,0.0,0.0,0.0,0.0,2.0,2.0,4.0,2.0,6.0
212,"San Pedro Pochutla, Oaxaca",15.744444,-96.465278,municipio,"Santa María Atzompa, Oax.",0.0,0.0,0.0,0.0,0.0,0.0,0.0,0.0,0.0,0.0,0.0,0.0,0.0,4.0,4.0,0.0,0.0,0.0,0.0,0.0,0.0,0.0,0.0,0.0,0.0,0.0,0.0,0.0,0.0,0.0,0.0,0.0,0.0,0.0,0.0,0.0,0.0,4.0,4.0
213,"San Pedro Tapanatepec, Oaxaca",16.3689223,-94.1927528,municipio,"Santa María Coyotepec, Oax.",0.0,0.0,0.0,0.0,0.0,0.0,0.0,0.0,0.0,0.0,0.0,0.0,0.0,0.0,0.0,0.0,0.0,0.0,0.0,0.0,0.0,0.0,0.0,0.0,0.0,0.0,0.0,5.0,0.0,5.0,4.0,0.0,4.0,0.0,0.0,0.0,9.0,0.0,9.0
214,"San Pedro Totolápam, Oaxaca",15.8659835,-97.0043148,municipio,"Santa María del Tule, Oax.",0.0,0.0,0.0,0.0,0.0,0.0,0.0,0.0,0.0,0.0,0.0,0.0,0.0,0.0,0.0,0.0,0.0,0.0,0.0,0.0,0.0,0.0,0.0,0.0,0.0,1.0,1.0,0.0,0.0,0.0,0.0,0.0,0.0,0.0,0.0,0.0,0.0,1.0,1.0
215,"San Sebastián Tutla, Oaxaca",17.059722,-96.672222,municipio,"Santa María Huatulco, Oax.",27.0,0.0,27.0,34.0,46.0,80.0,8.0,0.0,8.0,0.0,0.0,0.0,26.0,10.0,36.0,0.0,0.0,0.0,12.0,0.0,12.0,0.0,0.0,0.0,0.0,0.0,0.0,0.0,0.0,0.0,0.0,0.0,0.0,0.0,0.0,0.0,107.0,56.0,163.0
216,"Santa Cruz Xoxocotlán, Oaxaca",17.026389,-96.733333,municipio,"Santa María Jalapa del Marqués, Oax.",22.0,114.0,136.0,0.0,167.0,167.0,0.0,182.0,182.0,0.0,144.0,144.0,0.0,22.0,22.0,0.0,1.0,1.0,0.0,46.0,46.0,0.0,111.0,111.0,0.0,181.0,181.0,0.0,159.0,159.0,0.0,116.0,116.0,0.0,0.0,0.0,22.0,1243.0,1265.0
217,"Santa Lucía del Camino, Oaxaca",17.0625,-96.693333,municipio,"Santa María Mixtequilla, Oax.",0.0,0.0,0.0,0.0,0.0,0.0,0.0,0.0,0.0,0.0,0.0,0.0,0.0,0.0,0.0,0.0,0.0,0.0,0.0,0.0,0.0,0.0,0.0,0.0,0.0,0.0,0.0,0.0,0.0,0.0,0.0,0.0,0.0,37.0,0.0,37.0,37.0,0.0,37.0
218,"Santa María Atzompa, Oaxaca",17.1011053,-96.7777739,municipio,"Santa María Tonameca, Oax.",0.0,0.0,0.0,1.0,0.0,1.0,0.0,0.0,0.0,0.0,0.0,0.0,0.0,0.0,0.0,0.0,0.0,0.0,0.0,0.0,0.0,0.0,0.0,0.0,0.0,0.0,0.0,0.0,0.0,0.0,0.0,0.0,0.0,0.0,0.0,0.0,1.0,0.0,1.0
219,"Santa María Coyotepec, Oaxaca",16.9716988,-96.71080424404754,municipio,"Santiago Juxtlahuaca, Oax.",0.0,0.0,0.0,0.0,0.0,0.0,0.0,0.0,0.0,0.0,0.0,0.0,0.0,0.0,0.0,0.0,0.0,0.0,0.0,0.0,0.0,1.0,0.0,1.0,0.0,0.0,0.0,0.0,0.0,0.0,0.0,0.0,0.0,0.0,0.0,0.0,1.0,0.0,1.0
220,"Santa María del Tule, Oaxaca",17.0476822,-96.6334574,municipio,"Santiago Niltepec, Oax.",14.0,0.0,14.0,0.0,0.0,0.0,0.0,0.0,0.0,0.0,0.0,0.0,0.0,0.0,0.0,0.0,0.0,0.0,0.0,0.0,0.0,0.0,0.0,0.0,0.0,0.0,0.0,0.0,0.0,0.0,0.0,0.0,0.0,0.0,0.0,0.0,14.0,0.0,14.0
221,"Santa María Huatulco, Oaxaca",15.8337711,-96.3214401,municipio,"Santiago Pinotepa Nacional, Oax.",2.0,0.0,2.0,5.0,0.0,5.0,0.0,0.0,0.0,0.0,0.0,0.0,0.0,0.0,0.0,0.0,0.0,0.0,0.0,0.0,0.0,0.0,0.0,0.0,0.0,0.0,0.0,0.0,0.0,0.0,0.0,0.0,0.0,0.0,0.0,0.0,7.0,0.0,7.0
222,"Santa María Jalapa del Marqués, Oaxaca",16.4403557,-95.4448148,municipio,"Santo Domingo Tehuantepec, Oax.",0.0,0.0,0.0,0.0,0.0,0.0,0.0,7.0,7.0,0.0,0.0,0.0,0.0,0.0,0.0,0.0,0.0,0.0,0.0,0.0,0.0,8.0,24.0,32.0,28.0,0.0,28.0,0.0,0.0,0.0,0.0,55.0,55.0,6.0,94.0,100.0,42.0,180.0,222.0
223,"Santa María Mixtequilla, Oaxaca",16.374444,-95.259722,municipio,"Santo Domingo Yanhuitlán, Oax.",0.0,0.0,0.0,0.0,0.0,0.0,0.0,0.0,0.0,0.0,1.0,1.0,0.0,0.0,0.0,0.0,0.0,0.0,0.0,0.0,0.0,15.0,0.0,15.0,9.0,0.0,9.0,19.0,0.0,19.0,0.0,0.0,0.0,0.0,0.0,0.0,43.0,1.0,44.0
224,"Santa María Tonameca, Oaxaca",15.745833,-96.547222,municipio,"Tlacolula de Matamoros, Oax.",0.0,0.0,0.0,1.0,0.0,1.0,0.0,0.0,0.0,0.0,0.0,0.0,0.0,2.0,2.0,16.0,0.0,16.0,23.0,0.0,23.0,0.0,0.0,0.0,85.0,8.0,93.0,93.0,6.0,99.0,59.0,22.0,81.0,20.0,16.0,36.0,297.0,54.0,351.0
225,"Santiago Juxtlahuaca, Oaxaca",17.334443,-98.010574,municipio,"Trinidad Zaachila, Oax.",0.0,0.0,0.0,0.0,0.0,0.0,0.0,0.0,0.0,0.0,0.0,0.0,0.0,0.0,0.0,0.0,0.0,0.0,0.0,0.0,0.0,0.0,0.0,0.0,0.0,0.0,0.0,0.0,0.0,0.0,1.0,0.0,1.0,0.0,0.0,0.0,1.0,0.0,1.0
226,"Santiago Niltepec, Oaxaca",16.5614134,-94.6131085,municipio,"Villa de Etla, Oax.",0.0,0.0,0.0,0.0,0.0,0.0,0.0,0.0,0.0,0.0,0.0,0.0,0.0,0.0,0.0,0.0,0.0,0.0,0.0,0.0,0.0,2.0,0.0,2.0,0.0,0.0,0.0,0.0,0.0,0.0,0.0,0.0,0.0,0.0,0.0,0.0,2.0,0.0,2.0
227,"Santiago Pinotepa Nacional, Oaxaca",16.3406076,-98.0536701,municipio,"Villa de Tamazulápam del Progreso, Oax.",2.0,0.0,2.0,0.0,0.0,0.0,0.0,0.0,0.0,0.0,0.0,0.0,0.0,0.0,0.0,0.0,0.0,0.0,0.0,0.0,0.0,0.0,0.0,0.0,0.0,0.0,0.0,0.0,0.0,0.0,0.0,0.0,0.0,0.0,0.0,0.0,2.0,0.0,2.0
228,"Santo Domingo Tehuantepec, Oaxaca",16.3172613,-95.2468005,municipio,"Villa de Tututepec, Oax.",0.0,0.0,0.0,25.0,0.0,25.0,0.0,0.0,0.0,0.0,0.0,0.0,12.0,0.0,12.0,0.0,0.0,0.0,0.0,0.0,0.0,0.0,0.0,0.0,0.0,0.0,0.0,0.0,0.0,0.0,0.0,0.0,0.0,0.0,0.0,0.0,37.0,0.0,37.0
229,"Santo Domingo Yanhuitlán, Oaxaca",17.5273478,-97.3421502,municipio,"Villa de Zaachila, Oax.",0.0,0.0,0.0,0.0,0.0,0.0,0.0,0.0,0.0,0.0,0.0,0.0,0.0,0.0,0.0,0.0,0.0,0.0,0.0,0.0,0.0,0.0,0.0,0.0,28.0,50.0,78.0,0.0,0.0,0.0,0.0,0.0,0.0,0.0,0.0,0.0,28.0,50.0,78.0
230,"Tlacolula de Matamoros, Oaxaca",16.9314623,-96.46110745930906,municipio,"Villa Tejúpam de la Unión, Oax.",0.0,0.0,0.0,2.0,0.0,2.0,0.0,0.0,0.0,0.0,0.0,0.0,0.0,0.0,0.0,0.0,0.0,0.0,0.0,0.0,0.0,0.0,0.0,0.0,0.0,0.0,0.0,0.0,0.0,0.0,0.0,0.0,0.0,0.0,0.0,0.0,2.0,0.0,2.0
231,"Trinidad Zaachila, Oaxaca",16.921389,-96.765,municipio,"Puebla, Pue.",411.0,143.0,554.0,586.0,381.0,967.0,954.0,480.0,1434.0,494.0,203.0,697.0,172.0,84.0,256.0,7.0,4.0,11.0,1.0,11.0,12.0,69.0,507.0,576.0,45.0,59.0,104.0,29.0,71.0,100.0,149.0,137.0,286.0,38.0,34.0,72.0,2955.0,2114.0,5069.0
232,"Villa de Etla, Oaxaca",17.2057678,-96.7981939,municipio,"Colón, Qro.",0.0,0.0,0.0,0.0,0.0,0.0,0.0,0.0,0.0,0.0,0.0,0.0,0.0,0.0,0.0,0.0,0.0,0.0,0.0,0.0,0.0,0.0,16.0,16.0,0.0,0.0,0.0,0.0,0.0,0.0,0.0,0.0,0.0,0.0,0.0,0.0,0.0,16.0,16.0
233,"Villa de Tamazulápam del Progreso, Oaxaca",17.6748203,-97.5720083,municipio,"Querétaro, Qro.",0.0,0.0,0.0,32.0,0.0,32.0,29.0,0.0,29.0,1.0,0.0,1.0,0.0,0.0,0.0,0.0,0.0,0.0,90.0,0.0,90.0,234.0,0.0,234.0,90.0,0.0,90.0,0.0,0.0,0.0,354.0,0.0,354.0,40.0,1.0,41.0,870.0,1.0,871.0
234,"Villa de Tututepec, Oaxaca",16.1303062,-97.6080871,municipio,"San Juan del Río, Qro.",66.0,3.0,69.0,0.0,0.0,0.0,0.0,0.0,0.0,155.0,0.0,155.0,4.0,3.0,7.0,0.0,0.0,0.0,0.0,1.0,1.0,1.0,256.0,257.0,0.0,396.0,396.0,63.0,353.0,416.0,0.0,2.0,2.0,0.0,0.0,0.0,289.0,1014.0,1303.0
235,"Villa de Zaachila, Oaxaca",16.950833,-96.749167,municipio,"Bacalar, Q. Roo",0.0,0.0,0.0,0.0,0.0,0.0,0.0,0.0,0.0,0.0,0.0,0.0,0.0,0.0,0.0,0.0,0.0,0.0,0.0,0.0,0.0,4.0,0.0,4.0,5.0,0.0,5.0,0.0,0.0,0.0,0.0,0.0,0.0,0.0,0.0,0.0,9.0,0.0,9.0
236,"Villa Tejúpam de la Unión, Oaxaca",17.6625,-97.470833,municipio,"Benito Juárez, Q. Roo",54.0,7.0,61.0,97.0,16.0,113.0,181.0,11.0,192.0,183.0,25.0,208.0,74.0,1.0,75.0,97.0,3.0,100.0,347.0,49.0,396.0,252.0,11.0,263.0,130.0,2.0,132.0,83.0,1.0,84.0,173.0,23.0,196.0,89.0,0.0,89.0,1760.0,149.0,1909.0
237,"Puebla, Puebla",18.833333,-98.0,municipio,"Cozumel, Q. Roo",0.0,0.0,0.0,15.0,0.0,15.0,1.0,0.0,1.0,0.0,0.0,0.0,0.0,0.0,0.0,0.0,0.0,0.0,0.0,0.0,0.0,2.0,6.0,8.0,0.0,0.0,0.0,0.0,0.0,0.0,0.0,0.0,0.0,0.0,0.0,0.0,18.0,6.0,24.0
238,"El Marqués, Querétaro",20.73507785,-100.28357653504231,municipio,"Isla Mujeres, Q. Roo",10.0,0.0,10.0,4.0,0.0,4.0,2.0,0.0,2.0,0.0,0.0,0.0,0.0,0.0,0.0,0.0,0.0,0.0,0.0,0.0,0.0,0.0,1.0,1.0,0.0,0.0,0.0,0.0,0.0,0.0,0.0,0.0,0.0,7.0,0.0,7.0,23.0,1.0,24.0
239,"Querétaro, Querétaro",20.5927744,-100.3902245,municipio,"Othón P. Blanco, Q. Roo",7.0,0.0,7.0,21.0,4.0,25.0,12.0,0.0,12.0,5.0,0.0,5.0,1.0,0.0,1.0,16.0,1.0,17.0,71.0,12.0,83.0,36.0,11.0,47.0,33.0,13.0,46.0,43.0,2.0,45.0,37.0,13.0,50.0,9.0,0.0,9.0,291.0,56.0,347.0
240,"San Juan del Río, Querétaro",20.3867547,-99.9931982,municipio,"Solidaridad, Q. Roo",0.0,0.0,0.0,12.0,2.0,14.0,6.0,0.0,6.0,6.0,2.0,8.0,1.0,3.0,4.0,0.0,3.0,3.0,46.0,14.0,60.0,0.0,19.0,19.0,4.0,9.0,13.0,5.0,15.0,20.0,8.0,1.0,9.0,0.0,10.0,10.0,88.0,78.0,166.0
241,"Bacalar, Quintana Roo",18.6782559,-88.3922556,municipio,"Tulum, Q. Roo",0.0,0.0,0.0,0.0,0.0,0.0,0.0,0.0,0.0,0.0,0.0,0.0,0.0,0.0,0.0,0.0,0.0,0.0,0.0,13.0,13.0,0.0,0.0,0.0,0.0,0.0,0.0,0.0,0.0,0.0,0.0,0.0,0.0,0.0,0.0,0.0,0.0,13.0,13.0
242,"Benito Juárez, Quintana Roo",21.07668085,-86.92633521708406,municipio,"Cedral, SLP",0.0,0.0,0.0,0.0,0.0,0.0,0.0,0.0,0.0,0.0,0.0,0.0,5.0,0.0,5.0,0.0,0.0,0.0,0.0,0.0,0.0,0.0,0.0,0.0,0.0,0.0,0.0,0.0,0.0,0.0,0.0,0.0,0.0,0.0,0.0,0.0,5.0,0.0,5.0
243,"Cozumel, Quintana Roo",20.4320599,-86.92069058377268,municipio,"San Luis Potosí, SLP",242.0,0.0,242.0,308.0,0.0,308.0,377.0,0.0,377.0,216.0,0.0,216.0,11.0,0.0,11.0,0.0,126.0,126.0,61.0,0.0,61.0,293.0,0.0,293.0,467.0,0.0,467.0,367.0,0.0,367.0,441.0,0.0,441.0,1153.0,5.0,1158.0,3936.0,131.0,4067.0
244,"Isla Mujeres, Quintana Roo",21.2371906,-86.7350001,municipio,"Ahome, Sin.",0.0,0.0,0.0,0.0,0.0,0.0,0.0,0.0,0.0,0.0,0.0,0.0,0.0,0.0,0.0,0.0,0.0,0.0,0.0,0.0,0.0,0.0,0.0,0.0,0.0,2.0,2.0,0.0,0.0,0.0,0.0,0.0,0.0,1.0,0.0,1.0,1.0,2.0,3.0
245,"Othón P. Blanco, Quintana Roo",18.43704555,-88.82575815803347,municipio,"Angostura, Sin.",20.0,21.0,41.0,0.0,0.0,0.0,21.0,17.0,38.0,0.0,0.0,0.0,0.0,0.0,0.0,0.0,0.0,0.0,0.0,0.0,0.0,0.0,0.0,0.0,0.0,0.0,0.0,0.0,0.0,0.0,0.0,0.0,0.0,0.0,0.0,0.0,41.0,38.0,79.0
246,"Solidaridad, Quintana Roo",20.5843747,-87.50345268296755,municipio,"Culiacán, Sin.",2.0,0.0,2.0,4.0,0.0,4.0,2.0,0.0,2.0,1.0,0.0,1.0,2.0,0.0,2.0,0.0,0.0,0.0,0.0,0.0,0.0,0.0,0.0,0.0,0.0,0.0,0.0,0.0,0.0,0.0,0.0,0.0,0.0,0.0,0.0,0.0,11.0,0.0,11.0
247,"Tulum, Quintana Roo",20.1692965,-87.44954812616734,municipio,"Guasave, Sin.",0.0,0.0,0.0,0.0,0.0,0.0,0.0,0.0,0.0,0.0,0.0,0.0,0.0,0.0,0.0,0.0,0.0,0.0,0.0,0.0,0.0,0.0,0.0,0.0,0.0,0.0,0.0,0.0,0.0,0.0,1.0,0.0,1.0,0.0,0.0,0.0,1.0,0.0,1.0
248,"Cedral, San Luis Potosí",23.8205361,-100.7242892,municipio,"Mazatlán, Sin.",54.0,19.0,73.0,92.0,125.0,217.0,102.0,115.0,217.0,21.0,39.0,60.0,0.0,0.0,0.0,0.0,0.0,0.0,0.0,88.0,88.0,0.0,109.0,109.0,0.0,105.0,105.0,3.0,71.0,74.0,7.0,21.0,28.0,0.0,5.0,5.0,279.0,697.0,976.0
249,"San Luis Potosí, San Luis Potosí",22.5000001,-100.4949145,municipio,"Agua Prieta, Son.",0.0,0.0,0.0,0.0,0.0,0.0,0.0,0.0,0.0,13.0,0.0,13.0,17.0,2.0,19.0,0.0,0.0,0.0,1.0,0.0,1.0,1.0,0.0,1.0,0.0,0.0,0.0,0.0,0.0,0.0,1.0,0.0,1.0,0.0,0.0,0.0,33.0,2.0,35.0
250,"Ahome, Sinaloa",25.9240491,-109.20583440830308,municipio,"Caborca, Son.",0.0,0.0,0.0,0.0,0.0,0.0,0.0,0.0,0.0,0.0,0.0,0.0,0.0,32.0,32.0,131.0,241.0,372.0,0.0,0.0,0.0,0.0,0.0,0.0,0.0,0.0,0.0,0.0,0.0,0.0,0.0,0.0,0.0,0.0,9.0,9.0,131.0,282.0,413.0
251,"Angostura, Sinaloa",25.3657471,-108.16152,municipio,"Cajeme, Son.",0.0,0.0,0.0,0.0,0.0,0.0,0.0,75.0,75.0,36.0,9.0,45.0,109.0,11.0,120.0,138.0,71.0,209.0,7.0,0.0,7.0,0.0,0.0,0.0,0.0,0.0,0.0,0.0,6.0,6.0,42.0,229.0,271.0,52.0,254.0,306.0,384.0,655.0,1039.0
252,"Culiacán, Sinaloa",24.7978965,-107.393395,municipio,"General Plutarco Elías Calles, Son.",0.0,0.0,0.0,0.0,0.0,0.0,0.0,17.0,17.0,45.0,1.0,46.0,21.0,14.0,35.0,38.0,10.0,48.0,152.0,104.0,256.0,2.0,0.0,2.0,0.0,0.0,0.0,0.0,0.0,0.0,35.0,15.0,50.0,670.0,308.0,978.0,963.0,469.0,1432.0
253,"Guasave, Sinaloa",25.5738,-108.4674697,municipio,"Guaymas, Son.",0.0,0.0,0.0,0.0,0.0,0.0,0.0,4.0,4.0,0.0,0.0,0.0,0.0,0.0,0.0,0.0,0.0,0.0,0.0,63.0,63.0,0.0,0.0,0.0,0.0,0.0,0.0,0.0,0.0,0.0,96.0,0.0,96.0,693.0,7.0,700.0,789.0,74.0,863.0
254,"Mazatlán, Sinaloa",23.2035785,-106.4208391,municipio,"Hermosillo, Son.",1384.0,363.0,1747.0,1351.0,365.0,1716.0,1653.0,49.0,1702.0,210.0,16.0,226.0,255.0,40.0,295.0,148.0,17.0,165.0,176.0,24.0,200.0,55.0,20.0,75.0,922.0,41.0,963.0,386.0,26.0,412.0,496.0,240.0,736.0,899.0,687.0,1586.0,7935.0,1888.0,9823.0
255,"Agua Prieta, Sonora",31.3330151,-109.5594265,municipio,"Huatabampo, Son.",0.0,0.0,0.0,0.0,0.0,0.0,0.0,0.0,0.0,0.0,0.0,0.0,0.0,0.0,0.0,0.0,0.0,0.0,0.0,0.0,0.0,0.0,0.0,0.0,0.0,0.0,0.0,0.0,0.0,0.0,0.0,0.0,0.0,1041.0,1.0,1042.0,1041.0,1.0,1042.0
256,"Altar, Sonora",30.7170323,-111.8380038,municipio,"Imuris, Son.",0.0,0.0,0.0,0.0,0.0,0.0,0.0,0.0,0.0,0.0,0.0,0.0,0.0,0.0,0.0,0.0,0.0,0.0,0.0,0.0,0.0,0.0,0.0,0.0,0.0,0.0,0.0,0.0,0.0,0.0,0.0,0.0,0.0,0.0,7.0,7.0,0.0,7.0,7.0
257,"Caborca, Sonora",30.7166014,-112.1562598,municipio,"Navojoa, Son.",0.0,0.0,0.0,0.0,0.0,0.0,0.0,0.0,0.0,0.0,0.0,0.0,0.0,0.0,0.0,0.0,0.0,0.0,0.0,0.0,0.0,0.0,0.0,0.0,0.0,0.0,0.0,0.0,0.0,0.0,637.0,1.0,638.0,196.0,0.0,196.0,833.0,1.0,834.0
258,"Cajeme, Sonora",27.71198065,-109.9022075359282,municipio,"Nogales, Son.",1.0,0.0,1.0,0.0,0.0,0.0,0.0,122.0,122.0,2317.0,263.0,2580.0,656.0,46.0,702.0,14.0,0.0,14.0,78.0,6.0,84.0,55.0,4.0,59.0,57.0,4.0,61.0,89.0,0.0,89.0,108.0,0.0,108.0,264.0,0.0,264.0,3639.0,445.0,4084.0
259,"General Plutarco Elías Calles, Sonora",31.6949837,-112.71174894524104,municipio,"Puerto Peñasco, Son.",0.0,0.0,0.0,0.0,0.0,0.0,0.0,0.0,0.0,0.0,0.0,0.0,1.0,0.0,1.0,0.0,0.0,0.0,0.0,0.0,0.0,0.0,0.0,0.0,0.0,0.0,0.0,0.0,0.0,0.0,0.0,0.0,0.0,0.0,0.0,0.0,1.0,0.0,1.0
260,"Guaymas, Sonora",27.9216441,-110.8994059,municipio,"San Luis Río Colorado, Son.",0.0,0.0,0.0,1.0,0.0,1.0,0.0,26.0,26.0,13.0,2.0,15.0,0.0,0.0,0.0,11.0,14.0,25.0,0.0,0.0,0.0,0.0,0.0,0.0,0.0,0.0,0.0,0.0,0.0,0.0,0.0,0.0,0.0,0.0,0.0,0.0,25.0,42.0,67.0
261,"Hermosillo, Sonora",29.0948207,-110.9692202,municipio,"Santa Ana, Son.",0.0,0.0,0.0,0.0,0.0,0.0,0.0,0.0,0.0,0.0,0.0,0.0,0.0,0.0,0.0,1545.0,393.0,1938.0,743.0,440.0,1183.0,2137.0,1125.0,3262.0,1788.0,900.0,2688.0,615.0,481.0,1096.0,840.0,304.0,1144.0,916.0,130.0,1046.0,8584.0,3773.0,12357.0
262,"Huatabampo, Sonora",26.8248431,-109.6420085,municipio,"Balancán, Tab.",4.0,5.0,9.0,4.0,0.0,4.0,46.0,7.0,53.0,5.0,0.0,5.0,0.0,0.0,0.0,22.0,0.0,22.0,0.0,0.0,0.0,63.0,0.0,63.0,16.0,0.0,16.0,0.0,0.0,0.0,347.0,1.0,348.0,953.0,4.0,957.0,1460.0,17.0,1477.0
263,"Imuris, Sonora",30.7874899,-110.8463861,municipio,"Cárdenas, Tab.",104.0,21.0,125.0,99.0,47.0,146.0,132.0,42.0,174.0,87.0,26.0,113.0,535.0,108.0,643.0,1367.0,6.0,1373.0,1759.0,5.0,1764.0,3418.0,3.0,3421.0,2793.0,3.0,2796.0,3374.0,10.0,3384.0,3681.0,198.0,3879.0,5316.0,16.0,5332.0,22665.0,485.0,23150.0
264,"Navojoa, Sonora",27.0721872,-109.4438227,municipio,"Centla, Tab.",0.0,0.0,0.0,0.0,0.0,0.0,0.0,0.0,0.0,0.0,0.0,0.0,0.0,1.0,1.0,43.0,0.0,43.0,1.0,0.0,1.0,0.0,0.0,0.0,0.0,0.0,0.0,0.0,0.0,0.0,0.0,0.0,0.0,0.0,0.0,0.0,44.0,1.0,45.0
265,"Nogales, Sonora",31.3285057,-110.9450472,municipio,"Centro, Tab.",636.0,42.0,678.0,274.0,101.0,375.0,738.0,152.0,890.0,131.0,38.0,169.0,1983.0,172.0,2155.0,4915.0,188.0,5103.0,7420.0,317.0,7737.0,8202.0,657.0,8859.0,9187.0,2076.0,11263.0,5661.0,1677.0,7338.0,11628.0,501.0,12129.0,17357.0,107.0,17464.0,68132.0,6028.0,74160.0
266,"Puerto Peñasco, Sonora",31.3170867,-113.531819,municipio,"Comalcalco, Tab.",0.0,0.0,0.0,0.0,0.0,0.0,0.0,0.0,0.0,0.0,0.0,0.0,52.0,0.0,52.0,143.0,1.0,144.0,85.0,0.0,85.0,52.0,0.0,52.0,1.0,0.0,1.0,0.0,0.0,0.0,0.0,0.0,0.0,0.0,0.0,0.0,333.0,1.0,334.0
267,"San Luis Río Colorado, Sonora",32.4517957,-114.7652542,municipio,"Emiliano Zapata, Tab.",59.0,65.0,124.0,80.0,32.0,112.0,188.0,143.0,331.0,129.0,100.0,229.0,275.0,110.0,385.0,324.0,44.0,368.0,394.0,22.0,416.0,303.0,11.0,314.0,548.0,3.0,551.0,898.0,54.0,952.0,1238.0,41.0,1279.0,1452.0,42.0,1494.0,5888.0,667.0,6555.0
268,"Santa Ana, Sonora",30.5410922,-111.1184881,municipio,"Huimanguillo, Tab.",1159.0,490.0,1649.0,1004.0,747.0,1751.0,1230.0,782.0,2012.0,1278.0,980.0,2258.0,2852.0,1053.0,3905.0,3944.0,325.0,4269.0,6889.0,443.0,7332.0,11380.0,755.0,12135.0,11866.0,754.0,12620.0,12689.0,869.0,13558.0,13224.0,669.0,13893.0,10942.0,360.0,11302.0,78457.0,8227.0,86684.0
269,"Balancán, Tabasco",17.79751665,-91.34585889385215,municipio,"Jalapa, Tab.",9.0,0.0,9.0,0.0,0.0,0.0,0.0,0.0,0.0,0.0,0.0,0.0,0.0,0.0,0.0,190.0,0.0,190.0,570.0,2.0,572.0,1182.0,5.0,1187.0,970.0,1.0,971.0,1042.0,2.0,1044.0,1492.0,28.0,1520.0,2071.0,0.0,2071.0,7526.0,38.0,7564.0
270,"Cárdenas, Tabasco",17.990878,-93.3753314,municipio,"Macuspana, Tab.",164.0,41.0,205.0,174.0,46.0,220.0,261.0,84.0,345.0,206.0,116.0,322.0,705.0,128.0,833.0,2070.0,61.0,2131.0,3284.0,72.0,3356.0,4794.0,102.0,4896.0,4539.0,56.0,4595.0,3259.0,379.0,3638.0,4382.0,150.0,4532.0,6566.0,100.0,6666.0,30404.0,1335.0,31739.0
271,"Centla, Tabasco",18.3536762,-92.65219864326907,municipio,"Paraíso, Tab.",0.0,0.0,0.0,0.0,0.0,0.0,0.0,0.0,0.0,0.0,0.0,0.0,1.0,0.0,1.0,1.0,0.0,1.0,0.0,0.0,0.0,2.0,0.0,2.0,0.0,0.0,0.0,0.0,0.0,0.0,0.0,0.0,0.0,0.0,0.0,0.0,4.0,0.0,4.0
272,"Centro, Tabasco",18.0271588,-92.77479118046158,municipio,"Tacotalpa, Tab.",0.0,0.0,0.0,0.0,0.0,0.0,0.0,0.0,0.0,0.0,0.0,0.0,101.0,10.0,111.0,814.0,16.0,830.0,873.0,21.0,894.0,1677.0,8.0,1685.0,1463.0,0.0,1463.0,769.0,36.0,805.0,848.0,45.0,893.0,2365.0,5.0,2370.0,8910.0,141.0,9051.0
273,"Comalcalco, Tabasco",18.2615076,-93.2231523,municipio,"Teapa, Tab.",105.0,3.0,108.0,82.0,4.0,86.0,49.0,16.0,65.0,62.0,11.0,73.0,397.0,75.0,472.0,851.0,11.0,862.0,879.0,11.0,890.0,1430.0,3.0,1433.0,986.0,2.0,988.0,1068.0,58.0,1126.0,1223.0,19.0,1242.0,2566.0,5.0,2571.0,9698.0,218.0,9916.0
274,"Cunduacán, Tabasco",18.066059,-93.173675,municipio,"Tenosique, Tab.",231.0,169.0,400.0,331.0,280.0,611.0,698.0,730.0,1428.0,296.0,331.0,627.0,1406.0,246.0,1652.0,3252.0,111.0,3363.0,2853.0,97.0,2950.0,6415.0,300.0,6715.0,4554.0,385.0,4939.0,4542.0,926.0,5468.0,5567.0,944.0,6511.0,4595.0,361.0,4956.0,34740.0,4880.0,39620.0
275,"Emiliano Zapata, Tabasco",17.693626000000002,-91.63973455765353,municipio,"Aldama, Tamps.",0.0,0.0,0.0,8.0,2.0,10.0,4.0,0.0,4.0,0.0,0.0,0.0,0.0,0.0,0.0,0.0,0.0,0.0,0.0,0.0,0.0,0.0,0.0,0.0,0.0,0.0,0.0,0.0,0.0,0.0,0.0,0.0,0.0,0.0,0.0,0.0,12.0,2.0,14.0
276,"Huimanguillo, Tabasco",17.7620967,-93.66344080511584,municipio,"Altamira, Tamps.",13.0,41.0,54.0,27.0,16.0,43.0,33.0,15.0,48.0,5.0,3.0,8.0,9.0,8.0,17.0,1.0,0.0,1.0,57.0,15.0,72.0,0.0,0.0,0.0,144.0,315.0,459.0,79.0,38.0,117.0,0.0,28.0,28.0,15.0,11.0,26.0,383.0,490.0,873.0
277,"Jalapa, Tabasco",17.721716,-92.812012,municipio,"Antiguo Morelos, Tamps.",18.0,17.0,35.0,9.0,0.0,9.0,18.0,5.0,23.0,8.0,1.0,9.0,0.0,0.0,0.0,0.0,0.0,0.0,14.0,5.0,19.0,0.0,0.0,0.0,15.0,12.0,27.0,0.0,0.0,0.0,0.0,0.0,0.0,0.0,0.0,0.0,82.0,40.0,122.0
278,"Macuspana, Tabasco",17.760922,-92.596108,municipio,"Camargo, Tamps.",0.0,0.0,0.0,0.0,0.0,0.0,6.0,0.0,6.0,0.0,0.0,0.0,0.0,0.0,0.0,0.0,0.0,0.0,0.0,0.0,0.0,0.0,0.0,0.0,3.0,0.0,3.0,0.0,16.0,16.0,0.0,0.0,0.0,0.0,0.0,0.0,9.0,16.0,25.0
279,"Paraíso, Tabasco",18.3987331,-93.2125326,municipio,"Cruillas, Tamps.",31.0,23.0,54.0,53.0,0.0,53.0,60.0,0.0,60.0,5.0,0.0,5.0,0.0,0.0,0.0,21.0,2.0,23.0,380.0,30.0,410.0,0.0,0.0,0.0,144.0,23.0,167.0,109.0,64.0,173.0,0.0,72.0,72.0,0.0,0.0,0.0,803.0,214.0,1017.0
280,"Tacotalpa, Tabasco",17.5952197,-92.8253388,municipio,"El Mante, Tamps.",0.0,0.0,0.0,3.0,3.0,6.0,0.0,0.0,0.0,0.0,0.0,0.0,0.0,0.0,0.0,0.0,0.0,0.0,0.0,0.0,0.0,0.0,0.0,0.0,0.0,0.0,0.0,0.0,0.0,0.0,0.0,0.0,0.0,0.0,0.0,0.0,3.0,3.0,6.0
281,"Teapa, Tabasco",17.5566526,-92.9480504,municipio,"González, Tamps.",0.0,0.0,0.0,2.0,2.0,4.0,0.0,0.0,0.0,0.0,0.0,0.0,1.0,3.0,4.0,0.0,0.0,0.0,0.0,0.0,0.0,0.0,0.0,0.0,0.0,0.0,0.0,0.0,0.0,0.0,0.0,0.0,0.0,0.0,0.0,0.0,3.0,5.0,8.0
282,"Tenosique, Tabasco",17.4707129,-91.4220212,municipio,"Gustavo Díaz Ordaz, Tamps.",0.0,0.0,0.0,12.0,0.0,12.0,6.0,0.0,6.0,0.0,0.0,0.0,0.0,0.0,0.0,0.0,0.0,0.0,0.0,0.0,0.0,0.0,0.0,0.0,0.0,0.0,0.0,0.0,0.0,0.0,0.0,0.0,0.0,0.0,0.0,0.0,18.0,0.0,18.0
283,"Aldama, Tamaulipas",22.9196081,-98.0741727,municipio,"Hidalgo, Tamps.",4.0,1.0,5.0,12.0,0.0,12.0,11.0,0.0,11.0,4.0,0.0,4.0,0.0,0.0,0.0,2.0,2.0,4.0,0.0,0.0,0.0,0.0,0.0,0.0,2.0,2.0,4.0,0.0,0.0,0.0,0.0,7.0,7.0,0.0,0.0,0.0,35.0,12.0,47.0
284,"Altamira, Tamaulipas",22.3921625,-97.9362975,municipio,"Jaumave, Tamps.",31.0,25.0,56.0,24.0,0.0,24.0,59.0,0.0,59.0,9.0,0.0,9.0,0.0,0.0,0.0,4.0,4.0,8.0,277.0,33.0,310.0,0.0,0.0,0.0,2.0,0.0,2.0,9.0,0.0,9.0,0.0,19.0,19.0,6.0,36.0,42.0,421.0,117.0,538.0
285,"Antiguo Morelos, Tamaulipas",22.56570125,-99.08713716065976,municipio,"Jiménez, Tamps.",0.0,0.0,0.0,0.0,0.0,0.0,0.0,0.0,0.0,0.0,0.0,0.0,0.0,0.0,0.0,0.0,0.0,0.0,0.0,0.0,0.0,0.0,0.0,0.0,1.0,0.0,1.0,0.0,0.0,0.0,0.0,0.0,0.0,0.0,0.0,0.0,1.0,0.0,1.0
286,"Cruillas, Tamaulipas",24.7554618,-98.5369904,municipio,"Matamoros, Tamps.",76.0,0.0,76.0,153.0,0.0,153.0,130.0,3.0,133.0,0.0,4.0,4.0,0.0,0.0,0.0,0.0,3.0,3.0,0.0,0.0,0.0,0.0,1.0,1.0,1.0,3.0,4.0,0.0,0.0,0.0,0.0,0.0,0.0,0.0,0.0,0.0,360.0,14.0,374.0
287,"El Mante, Tamaulipas",22.60787365,-98.93534140593027,municipio,"Miguel Alemán, Tamps.",2.0,0.0,2.0,2.0,0.0,2.0,1.0,0.0,1.0,0.0,0.0,0.0,0.0,0.0,0.0,5.0,0.0,5.0,0.0,0.0,0.0,0.0,0.0,0.0,6.0,0.0,6.0,0.0,0.0,0.0,0.0,0.0,0.0,0.0,0.0,0.0,16.0,0.0,16.0
288,"González, Tamaulipas",22.790387350000003,-98.57631895542931,municipio,"Nuevo Laredo, Tamps.",13.0,9.0,22.0,13.0,0.0,13.0,38.0,9.0,47.0,57.0,2.0,59.0,1.0,0.0,1.0,0.0,0.0,0.0,0.0,0.0,0.0,0.0,0.0,0.0,0.0,0.0,0.0,0.0,0.0,0.0,1.0,0.0,1.0,0.0,0.0,0.0,123.0,20.0,143.0
289,"Hidalgo, Tamaulipas",24.2480354,-99.4382079,municipio,"Padilla, Tamps.",0.0,0.0,0.0,0.0,0.0,0.0,0.0,0.0,0.0,0.0,0.0,0.0,0.0,0.0,0.0,0.0,0.0,0.0,0.0,0.0,0.0,0.0,0.0,0.0,9.0,16.0,25.0,0.0,0.0,0.0,0.0,0.0,0.0,0.0,0.0,0.0,9.0,16.0,25.0
290,"Jaumave, Tamaulipas",23.40496,-99.3806698,municipio,"Reynosa, Tamps.",525.0,1.0,526.0,539.0,1.0,540.0,1455.0,6.0,1461.0,372.0,0.0,372.0,302.0,0.0,302.0,38.0,0.0,38.0,88.0,57.0,145.0,45.0,258.0,303.0,62.0,2.0,64.0,0.0,819.0,819.0,8.0,654.0,662.0,45.0,1062.0,1107.0,3479.0,2860.0,6339.0
291,"Jiménez, Tamaulipas",24.2169169,-98.483929,municipio,"Río Bravo, Tamps.",0.0,0.0,0.0,50.0,0.0,50.0,0.0,0.0,0.0,0.0,0.0,0.0,0.0,0.0,0.0,0.0,0.0,0.0,0.0,0.0,0.0,0.0,0.0,0.0,0.0,0.0,0.0,0.0,0.0,0.0,0.0,0.0,0.0,0.0,0.0,0.0,50.0,0.0,50.0
292,"Matamoros, Tamaulipas",25.8810158,-97.5064866,municipio,"San Fernando, Tamps.",6.0,18.0,24.0,36.0,13.0,49.0,63.0,46.0,109.0,0.0,0.0,0.0,0.0,0.0,0.0,3.0,0.0,3.0,167.0,30.0,197.0,0.0,0.0,0.0,25.0,7.0,32.0,85.0,100.0,185.0,0.0,38.0,38.0,24.0,42.0,66.0,409.0,294.0,703.0
293,"Miguel Alemán, Tamaulipas",26.3995446,-99.0314218,municipio,"Soto la Marina, Tamps.",0.0,0.0,0.0,2.0,0.0,2.0,14.0,9.0,23.0,0.0,1.0,1.0,0.0,0.0,0.0,1.0,2.0,3.0,0.0,0.0,0.0,0.0,0.0,0.0,12.0,12.0,24.0,0.0,1.0,1.0,0.0,0.0,0.0,0.0,0.0,0.0,29.0,25.0,54.0
294,"Nuevo Laredo, Tamaulipas",27.4950571,-99.5074431,municipio,"Tampico, Tamps.",0.0,0.0,0.0,0.0,0.0,0.0,0.0,2.0,2.0,0.0,0.0,0.0,0.0,0.0,0.0,2.0,0.0,2.0,1.0,0.0,1.0,0.0,0.0,0.0,1.0,0.0,1.0,4.0,3.0,7.0,0.0,25.0,25.0,4.0,5.0,9.0,12.0,35.0,47.0
295,"Reynosa, Tamaulipas",26.0907673,-98.2788191,municipio,"Victoria, Tamps.",0.0,0.0,0.0,1.0,0.0,1.0,3.0,0.0,3.0,6.0,0.0,6.0,1.0,0.0,1.0,0.0,0.0,0.0,0.0,0.0,0.0,0.0,0.0,0.0,15.0,2.0,17.0,0.0,0.0,0.0,0.0,5.0,5.0,0.0,0.0,0.0,26.0,7.0,33.0
296,"Río Bravo, Tamaulipas",25.988981,-98.0945766,municipio,"Amaxac de Guerrero, Tlax.",0.0,0.0,0.0,0.0,0.0,0.0,0.0,0.0,0.0,0.0,0.0,0.0,0.0,0.0,0.0,0.0,0.0,0.0,0.0,0.0,0.0,0.0,0.0,0.0,0.0,0.0,0.0,0.0,0.0,0.0,1.0,0.0,1.0,0.0,0.0,0.0,1.0,0.0,1.0
297,"San Fernando, Tamaulipas",24.8466769,-98.1473493,municipio,"Apetatitlán de Antonio Carvajal, Tlax.",214.0,1.0,215.0,7.0,0.0,7.0,10.0,2.0,12.0,5.0,0.0,5.0,4.0,1.0,5.0,1.0,0.0,1.0,15.0,5.0,20.0,2.0,2.0,4.0,7.0,0.0,7.0,7.0,0.0,7.0,26.0,8.0,34.0,3.0,1.0,4.0,301.0,20.0,321.0
298,"Soto la Marina, Tamaulipas",23.87599915,-98.0502640007194,municipio,"Apizaco, Tlax.",9.0,3.0,12.0,5.0,4.0,9.0,4.0,0.0,4.0,19.0,3.0,22.0,8.0,53.0,61.0,0.0,0.0,0.0,7.0,10.0,17.0,0.0,0.0,0.0,1.0,0.0,1.0,3.0,0.0,3.0,3.0,0.0,3.0,1.0,0.0,1.0,60.0,73.0,133.0
299,"Tampico, Tamaulipas",22.2157619,-97.8577713,municipio,"Atlangatepec, Tlax.",76.0,9.0,85.0,0.0,0.0,0.0,0.0,0.0,0.0,0.0,0.0,0.0,0.0,0.0,0.0,0.0,0.0,0.0,0.0,0.0,0.0,0.0,0.0,0.0,0.0,0.0,0.0,0.0,0.0,0.0,0.0,0.0,0.0,0.0,0.0,0.0,76.0,9.0,85.0
300,"Victoria, Tamaulipas",23.7389846,-99.1441352,municipio,"Calpulalpan, Tlax.",0.0,0.0,0.0,0.0,0.0,0.0,0.0,0.0,0.0,0.0,0.0,0.0,0.0,0.0,0.0,0.0,0.0,0.0,0.0,0.0,0.0,0.0,0.0,0.0,0.0,0.0,0.0,14.0,1.0,15.0,10.0,0.0,10.0,0.0,0.0,0.0,24.0,1.0,25.0
301,"Amaxac de Guerrero, Tlaxcala",19.348889,-98.167778,municipio,"Chiautempan, Tlax.",0.0,0.0,0.0,0.0,0.0,0.0,2.0,0.0,2.0,0.0,0.0,0.0,0.0,0.0,0.0,0.0,0.0,0.0,0.0,0.0,0.0,0.0,0.0,0.0,0.0,0.0,0.0,7.0,0.0,7.0,4.0,2.0,6.0,1.0,0.0,1.0,14.0,2.0,16.0
302,"Apetatitlán de Antonio Carvajal, Tlaxcala",19.3505173,-98.19120205454092,municipio,"Cuapiaxtla, Tlax.",0.0,0.0,0.0,17.0,29.0,46.0,0.0,0.0,0.0,0.0,0.0,0.0,0.0,0.0,0.0,0.0,0.0,0.0,0.0,0.0,0.0,0.0,0.0,0.0,0.0,0.0,0.0,0.0,0.0,0.0,0.0,0.0,0.0,0.0,0.0,0.0,17.0,29.0,46.0
303,"Apizaco, Tlaxcala",19.415556,-98.14,municipio,"Huamantla, Tlax.",0.0,0.0,0.0,348.0,55.0,403.0,362.0,51.0,413.0,409.0,85.0,494.0,0.0,0.0,0.0,7.0,8.0,15.0,9.0,1.0,10.0,269.0,57.0,326.0,10.0,7.0,17.0,2.0,0.0,2.0,7.0,0.0,7.0,0.0,0.0,0.0,1423.0,264.0,1687.0
304,"Atlangatepec, Tlaxcala",19.530833,-98.208333,municipio,"Hueyotlipan, Tlax.",1.0,0.0,1.0,0.0,0.0,0.0,0.0,0.0,0.0,0.0,0.0,0.0,0.0,0.0,0.0,0.0,0.0,0.0,0.0,0.0,0.0,0.0,0.0,0.0,3.0,10.0,13.0,0.0,0.0,0.0,0.0,0.0,0.0,0.0,0.0,0.0,4.0,10.0,14.0
305,"Calpulalpan, Tlaxcala",19.587778,-98.569167,municipio,"Ixtacuixtla de Mariano Matamoros, Tlax.",141.0,100.0,241.0,303.0,345.0,648.0,170.0,136.0,306.0,100.0,94.0,194.0,20.0,22.0,42.0,52.0,25.0,77.0,38.0,111.0,149.0,42.0,105.0,147.0,31.0,41.0,72.0,85.0,97.0,182.0,176.0,191.0,367.0,58.0,61.0,119.0,1216.0,1328.0,2544.0
306,"Chiautempan, Tlaxcala",19.313889,-98.1925,municipio,"Ixtenco, Tlax.",200.0,50.0,250.0,0.0,0.0,0.0,0.0,0.0,0.0,0.0,0.0,0.0,0.0,0.0,0.0,0.0,0.0,0.0,0.0,0.0,0.0,0.0,0.0,0.0,0.0,0.0,0.0,0.0,0.0,0.0,7.0,4.0,11.0,0.0,0.0,0.0,207.0,54.0,261.0
307,"Cuapiaxtla, Tlaxcala",19.2961777,-97.768912,municipio,"Muñoz de Domingo Arenas, Tlax.",0.0,0.0,0.0,0.0,0.0,0.0,2.0,0.0,2.0,0.0,0.0,0.0,0.0,0.0,0.0,0.0,0.0,0.0,0.0,0.0,0.0,0.0,0.0,0.0,0.0,0.0,0.0,0.0,0.0,0.0,0.0,0.0,0.0,0.0,0.0,0.0,2.0,0.0,2.0
308,"Huamantla, Tlaxcala",19.313427,-97.9230236,municipio,"Nanacamilpa de Mariano Arista, Tlax.",0.0,0.0,0.0,0.0,0.0,0.0,1.0,0.0,1.0,0.0,0.0,0.0,0.0,0.0,0.0,0.0,0.0,0.0,0.0,0.0,0.0,0.0,0.0,0.0,0.0,0.0,0.0,1.0,0.0,1.0,0.0,0.0,0.0,0.0,0.0,0.0,2.0,0.0,2.0
309,"Hueyotlipan, Tlaxcala",19.469444,-98.348056,municipio,"Natívitas, Tlax.",0.0,0.0,0.0,0.0,0.0,0.0,0.0,0.0,0.0,0.0,0.0,0.0,1.0,0.0,1.0,0.0,0.0,0.0,0.0,0.0,0.0,0.0,0.0,0.0,0.0,0.0,0.0,12.0,4.0,16.0,0.0,0.0,0.0,0.0,0.0,0.0,13.0,4.0,17.0
310,"Ixtacuixtla de Mariano Matamoros, Tlaxcala",19.34670365,-98.37815810373962,municipio,"Papalotla de Xicohténcatl, Tlax.",0.0,0.0,0.0,0.0,0.0,0.0,0.0,0.0,0.0,0.0,0.0,0.0,0.0,0.0,0.0,0.0,0.0,0.0,1.0,0.0,1.0,0.0,0.0,0.0,1.0,0.0,1.0,0.0,0.0,0.0,0.0,0.0,0.0,0.0,0.0,0.0,2.0,0.0,2.0
311,"Ixtenco, Tlaxcala",19.2518725,-97.8947561,municipio,"San Jerónimo Zacualpan, Tlax.",0.0,0.0,0.0,0.0,0.0,0.0,0.0,0.0,0.0,0.0,0.0,0.0,0.0,0.0,0.0,0.0,0.0,0.0,0.0,0.0,0.0,1.0,3.0,4.0,0.0,0.0,0.0,0.0,0.0,0.0,0.0,0.0,0.0,0.0,0.0,0.0,1.0,3.0,4.0
312,"Muñoz de Domingo Arenas, Tlaxcala",19.474722,-98.208056,municipio,"San Juan Huactzinco, Tlax.",0.0,0.0,0.0,0.0,0.0,0.0,0.0,0.0,0.0,0.0,0.0,0.0,0.0,0.0,0.0,0.0,0.0,0.0,0.0,0.0,0.0,0.0,0.0,0.0,0.0,0.0,0.0,0.0,0.0,0.0,1.0,0.0,1.0,0.0,0.0,0.0,1.0,0.0,1.0
313,"Nanacamilpa de Mariano Arista, Tlaxcala",19.5080315,-98.54324076456274,municipio,"San Pablo del Monte, Tlax.",0.0,0.0,0.0,0.0,0.0,0.0,0.0,0.0,0.0,2.0,0.0,2.0,0.0,0.0,0.0,0.0,0.0,0.0,0.0,0.0,0.0,0.0,0.0,0.0,0.0,0.0,0.0,0.0,0.0,0.0,0.0,0.0,0.0,0.0,0.0,0.0,2.0,0.0,2.0
314,"Natívitas, Tlaxcala",19.233333,-98.314722,municipio,"Sanctórum de Lázaro Cárdenas, Tlax.",11.0,2.0,13.0,0.0,0.0,0.0,0.0,0.0,0.0,0.0,0.0,0.0,0.0,0.0,0.0,0.0,0.0,0.0,0.0,0.0,0.0,0.0,0.0,0.0,0.0,0.0,0.0,0.0,0.0,0.0,0.0,0.0,0.0,0.0,0.0,0.0,11.0,2.0,13.0
315,"Papalotla de Xicohténcatl, Tlaxcala",19.168611,-98.203889,municipio,"Santa Cruz Quilehtla, Tlax.",0.0,0.0,0.0,0.0,0.0,0.0,0.0,0.0,0.0,0.0,0.0,0.0,0.0,0.0,0.0,0.0,0.0,0.0,0.0,0.0,0.0,3.0,0.0,3.0,0.0,6.0,6.0,0.0,0.0,0.0,0.0,0.0,0.0,0.0,0.0,0.0,3.0,6.0,9.0
316,"San Jerónimo Zacualpan, Tlaxcala",19.240833,-98.261389,municipio,"Santa Cruz Tlaxcala, Tlax.",0.0,0.0,0.0,1.0,0.0,1.0,0.0,0.0,0.0,0.0,0.0,0.0,0.0,0.0,0.0,0.0,0.0,0.0,0.0,0.0,0.0,0.0,0.0,0.0,0.0,0.0,0.0,0.0,0.0,0.0,0.0,0.0,0.0,1.0,0.0,1.0,2.0,0.0,2.0
317,"San Juan Huactzinco, Tlaxcala",19.2329326,-98.2520375,municipio,"Tetla de la Solidaridad, Tlax.",0.0,0.0,0.0,0.0,0.0,0.0,0.0,0.0,0.0,0.0,0.0,0.0,0.0,0.0,0.0,0.0,0.0,0.0,0.0,0.0,0.0,0.0,0.0,0.0,0.0,0.0,0.0,0.0,0.0,0.0,0.0,0.0,0.0,0.0,2.0,2.0,0.0,2.0,2.0
318,"San Pablo del Monte, Tlaxcala",19.12695185,-98.16539571695478,municipio,"Tlaxcala, Tlax.",0.0,0.0,0.0,0.0,0.0,0.0,1.0,0.0,1.0,0.0,0.0,0.0,0.0,0.0,0.0,1.0,0.0,1.0,0.0,0.0,0.0,0.0,0.0,0.0,1.0,0.0,1.0,0.0,0.0,0.0,0.0,0.0,0.0,0.0,0.0,0.0,3.0,0.0,3.0
319,"Sanctórum de Lázaro Cárdenas, Tlaxcala",19.4925,-98.471944,municipio,"Tlaxco, Tlax.",1.0,0.0,1.0,0.0,0.0,0.0,8.0,0.0,8.0,12.0,2.0,14.0,0.0,0.0,0.0,0.0,0.0,0.0,1.0,6.0,7.0,4.0,0.0,4.0,6.0,0.0,6.0,1.0,0.0,1.0,1.0,0.0,1.0,6.0,0.0,6.0,40.0,8.0,48.0
320,"Santa Cruz Quilehtla, Tlaxcala",19.212222,-98.221111,municipio,"Tocatlán, Tlax.",0.0,0.0,0.0,0.0,0.0,0.0,0.0,0.0,0.0,5.0,2.0,7.0,1.0,0.0,1.0,0.0,0.0,0.0,0.0,0.0,0.0,0.0,0.0,0.0,0.0,0.0,0.0,0.0,0.0,0.0,0.0,0.0,0.0,0.0,0.0,0.0,6.0,2.0,8.0
321,"Tetla de la Solidaridad, Tlaxcala",19.440556,-98.103333,municipio,"Tzompantepec, Tlax.",0.0,0.0,0.0,1.0,0.0,1.0,18.0,1.0,19.0,2.0,0.0,2.0,0.0,0.0,0.0,0.0,0.0,0.0,0.0,11.0,11.0,0.0,0.0,0.0,0.0,0.0,0.0,0.0,0.0,0.0,0.0,0.0,0.0,0.0,0.0,0.0,21.0,12.0,33.0
322,"Tlaxcala, Tlaxcala",19.416667,-98.166667,municipio,"Xaloztoc, Tlax.",209.0,17.0,226.0,0.0,0.0,0.0,1.0,0.0,1.0,1.0,0.0,1.0,146.0,17.0,163.0,220.0,53.0,273.0,414.0,99.0,513.0,3.0,0.0,3.0,261.0,59.0,320.0,211.0,81.0,292.0,159.0,98.0,257.0,180.0,72.0,252.0,1805.0,496.0,2301.0
323,"Tlaxco, Tlaxcala",19.62058645,-98.17076010112392,municipio,"Xaltocan, Tlax.",1.0,8.0,9.0,0.0,0.0,0.0,0.0,0.0,0.0,0.0,0.0,0.0,0.0,0.0,0.0,0.0,0.0,0.0,0.0,0.0,0.0,0.0,0.0,0.0,156.0,136.0,292.0,0.0,0.0,0.0,0.0,0.0,0.0,0.0,0.0,0.0,157.0,144.0,301.0
324,"Tocatlán, Tlaxcala",19.389167,-98.03,municipio,"Yauhquemehcan, Tlax.",0.0,0.0,0.0,9.0,1.0,10.0,62.0,13.0,75.0,5.0,1.0,6.0,0.0,0.0,0.0,0.0,0.0,0.0,0.0,0.0,0.0,0.0,0.0,0.0,0.0,0.0,0.0,0.0,4.0,4.0,3.0,0.0,3.0,0.0,0.0,0.0,79.0,19.0,98.0
325,"Tzompantepec, Tlaxcala",19.38326045,-98.08616228147103,municipio,"Zacatelco, Tlax.",0.0,0.0,0.0,0.0,0.0,0.0,0.0,0.0,0.0,1.0,0.0,1.0,0.0,0.0,0.0,0.0,0.0,0.0,0.0,0.0,0.0,1.0,0.0,1.0,4.0,0.0,4.0,2.0,0.0,2.0,0.0,0.0,0.0,0.0,0.0,0.0,8.0,0.0,8.0
326,"Xaloztoc, Tlaxcala",19.403611,-98.048611,municipio,"Ziltlaltépec de Trinidad Sánchez Santos, Tlax.",0.0,0.0,0.0,0.0,0.0,0.0,0.0,0.0,0.0,0.0,0.0,0.0,0.0,0.0,0.0,0.0,0.0,0.0,0.0,18.0,18.0,0.0,0.0,0.0,0.0,0.0,0.0,0.0,0.0,0.0,0.0,0.0,0.0,0.0,0.0,0.0,0.0,18.0,18.0
327,"Yauhquemehcan, Tlaxcala",19.4057444,-98.1824244,municipio,"Acayucan, Ver.",1232.0,28.0,1260.0,1180.0,43.0,1223.0,2031.0,0.0,2031.0,1249.0,36.0,1285.0,3495.0,61.0,3556.0,3094.0,796.0,3890.0,3524.0,540.0,4064.0,4949.0,43.0,4992.0,5182.0,42.0,5224.0,4222.0,48.0,4270.0,2817.0,42.0,2859.0,1784.0,8.0,1792.0,34759.0,1687.0,36446.0
328,"Zacatelco, Tlaxcala",19.215833,-98.239722,municipio,"Agua Dulce, Ver.",0.0,0.0,0.0,0.0,0.0,0.0,0.0,0.0,0.0,0.0,0.0,0.0,0.0,0.0,0.0,0.0,0.0,0.0,0.0,0.0,0.0,0.0,0.0,0.0,0.0,20.0,20.0,0.0,0.0,0.0,0.0,0.0,0.0,0.0,0.0,0.0,0.0,20.0,20.0
329,"Acayucan, Veracruz",17.9487862,-94.9145752,municipio,"Álamo Temapache, Ver.",0.0,0.0,0.0,0.0,0.0,0.0,0.0,0.0,0.0,0.0,0.0,0.0,0.0,0.0,0.0,0.0,0.0,0.0,1.0,2.0,3.0,0.0,0.0,0.0,0.0,0.0,0.0,0.0,0.0,0.0,0.0,0.0,0.0,0.0,0.0,0.0,1.0,2.0,3.0
330,"Agua Dulce, Veracruz",18.0899541,-94.16236305223826,municipio,"Alvarado, Ver.",0.0,0.0,0.0,0.0,0.0,0.0,0.0,0.0,0.0,0.0,0.0,0.0,0.0,4.0,4.0,0.0,30.0,30.0,0.0,4.0,4.0,0.0,0.0,0.0,0.0,3.0,3.0,0.0,5.0,5.0,0.0,3.0,3.0,0.0,10.0,10.0,0.0,59.0,59.0
331,"Álamo Temapache, Veracruz",20.995193200000003,-97.75578419140824,municipio,"Amatlán de los Reyes, Ver.",0.0,0.0,0.0,0.0,0.0,0.0,0.0,0.0,0.0,1.0,0.0,1.0,0.0,0.0,0.0,0.0,0.0,0.0,0.0,0.0,0.0,0.0,16.0,16.0,0.0,0.0,0.0,0.0,0.0,0.0,0.0,0.0,0.0,0.0,0.0,0.0,1.0,16.0,17.0
332,"Alvarado, Veracruz",18.82874235,-95.9238540059007,municipio,"Angel R. Cabada, Ver.",0.0,0.0,0.0,0.0,0.0,0.0,0.0,0.0,0.0,0.0,0.0,0.0,0.0,0.0,0.0,0.0,0.0,0.0,0.0,0.0,0.0,0.0,0.0,0.0,0.0,0.0,0.0,0.0,0.0,0.0,0.0,17.0,17.0,0.0,4.0,4.0,0.0,21.0,21.0
333,"Amatlán de los Reyes, Veracruz",18.87251165,-96.86857239686655,municipio,"Camerino Z. Mendoza, Ver.",0.0,0.0,0.0,0.0,0.0,0.0,0.0,0.0,0.0,0.0,0.0,0.0,0.0,0.0,0.0,0.0,126.0,126.0,0.0,0.0,0.0,0.0,0.0,0.0,0.0,0.0,0.0,0.0,0.0,0.0,0.0,0.0,0.0,0.0,0.0,0.0,0.0,126.0,126.0
334,"Angel R. Cabada, Veracruz",18.5927238,-95.38616824749718,municipio,"Carlos A. Carrillo, Ver.",0.0,1.0,1.0,0.0,0.0,0.0,0.0,0.0,0.0,0.0,0.0,0.0,0.0,0.0,0.0,0.0,0.0,0.0,0.0,0.0,0.0,0.0,0.0,0.0,0.0,0.0,0.0,0.0,0.0,0.0,0.0,0.0,0.0,0.0,0.0,0.0,0.0,1.0,1.0
335,"Camerino Z. Mendoza, Veracruz",18.7896308,-97.15993214034108,municipio,"Carrillo Puerto, Ver.",0.0,0.0,0.0,0.0,0.0,0.0,0.0,0.0,0.0,0.0,0.0,0.0,0.0,0.0,0.0,0.0,0.0,0.0,0.0,0.0,0.0,0.0,0.0,0.0,0.0,0.0,0.0,0.0,19.0,19.0,0.0,31.0,31.0,0.0,5.0,5.0,0.0,55.0,55.0
336,"Carlos A. Carrillo, Veracruz",18.32836115,-95.71540338041564,municipio,"Coatepec, Ver.",0.0,0.0,0.0,1.0,0.0,1.0,0.0,0.0,0.0,0.0,0.0,0.0,0.0,0.0,0.0,0.0,0.0,0.0,0.0,0.0,0.0,0.0,0.0,0.0,0.0,0.0,0.0,0.0,0.0,0.0,0.0,0.0,0.0,0.0,0.0,0.0,1.0,0.0,1.0
337,"Carrillo Puerto, Veracruz",18.8215893,-96.58428389542232,municipio,"Coatzacoalcos, Ver.",0.0,6.0,6.0,32.0,21.0,53.0,108.0,0.0,108.0,26.0,50.0,76.0,19.0,24.0,43.0,0.0,11.0,11.0,0.0,1.0,1.0,0.0,0.0,0.0,13.0,0.0,13.0,0.0,0.0,0.0,0.0,5.0,5.0,0.0,0.0,0.0,198.0,118.0,316.0
338,"Coatepec, Veracruz",19.4543134,-96.9596375,municipio,"Córdoba, Ver.",114.0,6.0,120.0,21.0,22.0,43.0,0.0,0.0,0.0,39.0,0.0,39.0,0.0,7.0,7.0,0.0,64.0,64.0,3.0,247.0,250.0,0.0,22.0,22.0,0.0,21.0,21.0,0.0,19.0,19.0,0.0,24.0,24.0,0.0,0.0,0.0,177.0,432.0,609.0
339,"Coatzacoalcos, Veracruz",18.1396787,-94.4501731,municipio,"Cosamaloapan de Carpio, Ver.",0.0,7.0,7.0,10.0,123.0,133.0,0.0,0.0,0.0,0.0,19.0,19.0,0.0,467.0,467.0,0.0,204.0,204.0,0.0,274.0,274.0,0.0,389.0,389.0,0.0,778.0,778.0,0.0,432.0,432.0,0.0,268.0,268.0,0.0,124.0,124.0,10.0,3085.0,3095.0
340,"Córdoba, Veracruz",18.8944704,-96.9352891,municipio,"Cosoleacaque, Ver.",0.0,3.0,3.0,0.0,3.0,3.0,0.0,0.0,0.0,0.0,0.0,0.0,0.0,4.0,4.0,0.0,0.0,0.0,0.0,10.0,10.0,0.0,0.0,0.0,0.0,0.0,0.0,0.0,0.0,0.0,0.0,0.0,0.0,0.0,0.0,0.0,0.0,20.0,20.0
341,"Cosamaloapan de Carpio, Veracruz",18.28167395,-95.96435747268424,municipio,"Cotaxtla, Ver.",1.0,0.0,1.0,0.0,0.0,0.0,0.0,0.0,0.0,0.0,0.0,0.0,0.0,0.0,0.0,0.0,0.0,0.0,0.0,138.0,138.0,0.0,0.0,0.0,0.0,0.0,0.0,0.0,0.0,0.0,0.0,0.0,0.0,0.0,5.0,5.0,1.0,143.0,144.0
342,"Cosoleacaque, Veracruz",18.0060183,-94.61748300858764,municipio,"Cuitláhuac, Ver.",0.0,41.0,41.0,17.0,20.0,37.0,0.0,0.0,0.0,13.0,0.0,13.0,0.0,49.0,49.0,0.0,133.0,133.0,0.0,181.0,181.0,0.0,132.0,132.0,12.0,411.0,423.0,0.0,176.0,176.0,0.0,134.0,134.0,0.0,128.0,128.0,42.0,1405.0,1447.0
343,"Cotaxtla, Veracruz",18.857657250000003,-96.35099905704104,municipio,"Emiliano Zapata, Ver.",0.0,0.0,0.0,0.0,0.0,0.0,0.0,0.0,0.0,0.0,0.0,0.0,0.0,0.0,0.0,0.0,0.0,0.0,0.0,0.0,0.0,0.0,0.0,0.0,0.0,0.0,0.0,0.0,7.0,7.0,0.0,0.0,0.0,0.0,0.0,0.0,0.0,7.0,7.0
344,"Cuitláhuac, Veracruz",18.814226,-96.7223775,municipio,"Fortín, Ver.",2.0,0.0,2.0,35.0,0.0,35.0,0.0,0.0,0.0,3.0,0.0,3.0,0.0,5.0,5.0,0.0,4.0,4.0,0.0,0.0,0.0,0.0,0.0,0.0,0.0,0.0,0.0,0.0,5.0,5.0,0.0,0.0,0.0,0.0,0.0,0.0,40.0,14.0,54.0
345,"Fortín, Veracruz",18.8993309,-96.9982014,municipio,"Gutiérrez Zamora, Ver.",0.0,9.0,9.0,0.0,0.0,0.0,0.0,0.0,0.0,0.0,0.0,0.0,0.0,0.0,0.0,0.0,0.0,0.0,0.0,0.0,0.0,0.0,0.0,0.0,0.0,0.0,0.0,0.0,0.0,0.0,0.0,0.0,0.0,0.0,0.0,0.0,0.0,9.0,9.0
346,"Gutiérrez Zamora, Veracruz",20.456991,-97.085536109707,municipio,"Isla, Ver.",0.0,0.0,0.0,0.0,0.0,0.0,0.0,0.0,0.0,0.0,0.0,0.0,0.0,0.0,0.0,15.0,0.0,15.0,0.0,0.0,0.0,0.0,0.0,0.0,0.0,0.0,0.0,0.0,0.0,0.0,0.0,0.0,0.0,0.0,0.0,0.0,15.0,0.0,15.0
347,"Isla, Veracruz",18.0276212,-95.5281332,municipio,"Ixhuatlán del Sureste, Ver.",0.0,2.0,2.0,0.0,0.0,0.0,0.0,0.0,0.0,0.0,0.0,0.0,0.0,0.0,0.0,0.0,0.0,0.0,0.0,0.0,0.0,0.0,0.0,0.0,0.0,0.0,0.0,0.0,0.0,0.0,0.0,0.0,0.0,0.0,0.0,0.0,0.0,2.0,2.0
348,"Ixtaczoquitlán, Veracruz",18.85134015,-97.02710712449068,municipio,"Ixtaczoquitlán, Ver.",0.0,0.0,0.0,1.0,0.0,1.0,0.0,0.0,0.0,0.0,0.0,0.0,0.0,0.0,0.0,0.0,0.0,0.0,0.0,0.0,0.0,0.0,1.0,1.0,0.0,0.0,0.0,0.0,0.0,0.0,0.0,0.0,0.0,0.0,0.0,0.0,1.0,1.0,2.0
349,"Jesús Carranza, Veracruz",17.38793115,-94.90949730630518,municipio,"Jesús Carranza, Ver.",0.0,80.0,80.0,0.0,0.0,0.0,0.0,0.0,0.0,0.0,17.0,17.0,0.0,188.0,188.0,0.0,204.0,204.0,0.0,333.0,333.0,0.0,987.0,987.0,0.0,1065.0,1065.0,0.0,1095.0,1095.0,0.0,928.0,928.0,0.0,498.0,498.0,0.0,5395.0,5395.0
350,"Juan Rodríguez Clara, Veracruz",17.97320895,-95.34412799338502,municipio,"Juan Rodríguez Clara, Ver.",0.0,4.0,4.0,0.0,1.0,1.0,0.0,0.0,0.0,0.0,0.0,0.0,0.0,0.0,0.0,0.0,0.0,0.0,0.0,0.0,0.0,0.0,3.0,3.0,0.0,0.0,0.0,0.0,0.0,0.0,0.0,0.0,0.0,0.0,0.0,0.0,0.0,8.0,8.0
351,"La Antigua, Veracruz",19.3176799,-96.31864092519668,municipio,"La Antigua, Ver.",0.0,0.0,0.0,0.0,0.0,0.0,0.0,0.0,0.0,0.0,0.0,0.0,0.0,0.0,0.0,0.0,0.0,0.0,0.0,160.0,160.0,0.0,0.0,0.0,0.0,0.0,0.0,0.0,0.0,0.0,0.0,0.0,0.0,0.0,0.0,0.0,0.0,160.0,160.0
352,"Las Choapas, Veracruz",17.56348585,-93.94000863532293,municipio,"Las Choapas, Ver.",0.0,24.0,24.0,7.0,12.0,19.0,1.0,0.0,1.0,0.0,0.0,0.0,0.0,36.0,36.0,0.0,10.0,10.0,0.0,10.0,10.0,0.0,101.0,101.0,0.0,16.0,16.0,0.0,2.0,2.0,0.0,14.0,14.0,16.0,51.0,67.0,24.0,276.0,300.0
353,"Martínez de la Torre, Veracruz",20.1197165,-97.04616467665728,municipio,"Martínez de la Torre, Ver.",0.0,0.0,0.0,0.0,0.0,0.0,0.0,0.0,0.0,0.0,0.0,0.0,0.0,0.0,0.0,0.0,0.0,0.0,0.0,0.0,0.0,0.0,0.0,0.0,0.0,15.0,15.0,0.0,0.0,0.0,0.0,0.0,0.0,0.0,0.0,0.0,0.0,15.0,15.0
354,"Medellín de Bravo, Veracruz",19.0404677,-96.1442918,municipio,"Medellín de Bravo, Ver.",0.0,0.0,0.0,0.0,0.0,0.0,0.0,0.0,0.0,0.0,0.0,0.0,0.0,0.0,0.0,0.0,0.0,0.0,0.0,27.0,27.0,0.0,0.0,0.0,0.0,0.0,0.0,0.0,0.0,0.0,0.0,0.0,0.0,0.0,0.0,0.0,0.0,27.0,27.0
355,"Minatitlán, Veracruz",17.992773,-94.5567103,municipio,"Minatitlán, Ver.",0.0,0.0,0.0,0.0,0.0,0.0,0.0,0.0,0.0,0.0,4.0,4.0,0.0,0.0,0.0,0.0,3.0,3.0,0.0,0.0,0.0,0.0,0.0,0.0,0.0,1.0,1.0,0.0,0.0,0.0,0.0,2.0,2.0,0.0,0.0,0.0,0.0,10.0,10.0
356,"Moloacán, Veracruz",17.9926405,-94.28232907418123,municipio,"Moloacán, Ver.",0.0,94.0,94.0,0.0,96.0,96.0,0.0,0.0,0.0,0.0,76.0,76.0,0.0,303.0,303.0,0.0,322.0,322.0,0.0,325.0,325.0,0.0,449.0,449.0,0.0,845.0,845.0,0.0,782.0,782.0,0.0,477.0,477.0,0.0,433.0,433.0,0.0,4202.0,4202.0
357,"Naranjos Amatlán, Veracruz",21.3093326,-97.67600130026644,municipio,"Naranjos Amatlán, Ver.",0.0,0.0,0.0,0.0,0.0,0.0,0.0,0.0,0.0,0.0,0.0,0.0,0.0,0.0,0.0,0.0,0.0,0.0,0.0,0.0,0.0,0.0,21.0,21.0,0.0,0.0,0.0,0.0,0.0,0.0,0.0,0.0,0.0,0.0,0.0,0.0,0.0,21.0,21.0
358,"Nogales, Veracruz",18.8226013,-97.1627659,municipio,"Nogales, Ver.",0.0,0.0,0.0,0.0,0.0,0.0,0.0,0.0,0.0,0.0,0.0,0.0,0.0,6.0,6.0,0.0,0.0,0.0,0.0,0.0,0.0,0.0,0.0,0.0,0.0,0.0,0.0,0.0,0.0,0.0,0.0,0.0,0.0,0.0,0.0,0.0,0.0,6.0,6.0
359,"Orizaba, Veracruz",18.8497366,-97.1060062,municipio,"Orizaba, Ver.",57.0,8.0,65.0,334.0,8.0,342.0,0.0,0.0,0.0,372.0,0.0,372.0,0.0,28.0,28.0,0.0,17.0,17.0,37.0,69.0,106.0,0.0,0.0,0.0,22.0,0.0,22.0,43.0,65.0,108.0,0.0,3.0,3.0,0.0,37.0,37.0,865.0,235.0,1100.0
360,"Ozuluama de Mascareñas, Veracruz",21.661111,-97.850556,municipio,"Ozuluama de Mascareñas, Ver.",0.0,0.0,0.0,0.0,0.0,0.0,5.0,5.0,10.0,0.0,0.0,0.0,3.0,59.0,62.0,0.0,2.0,2.0,0.0,0.0,0.0,0.0,0.0,0.0,0.0,0.0,0.0,0.0,0.0,0.0,0.0,0.0,0.0,0.0,0.0,0.0,8.0,66.0,74.0
361,"Pánuco, Veracruz",22.08052495,-98.23295792186904,municipio,"Pánuco, Ver.",0.0,0.0,0.0,0.0,0.0,0.0,0.0,0.0,0.0,0.0,0.0,0.0,0.0,8.0,8.0,0.0,0.0,0.0,0.0,0.0,0.0,0.0,0.0,0.0,0.0,0.0,0.0,0.0,0.0,0.0,0.0,0.0,0.0,0.0,0.0,0.0,0.0,8.0,8.0
362,"Papantla, Veracruz",20.445872100000003,-97.32327774944926,municipio,"Papantla, Ver.",0.0,0.0,0.0,0.0,0.0,0.0,0.0,0.0,0.0,2.0,0.0,2.0,3.0,6.0,9.0,0.0,11.0,11.0,0.0,0.0,0.0,0.0,0.0,0.0,3.0,23.0,26.0,0.0,0.0,0.0,0.0,0.0,0.0,0.0,0.0,0.0,8.0,40.0,48.0
363,"Perote, Veracruz",19.51086405,-97.26853448069734,municipio,"Perote, Ver.",0.0,0.0,0.0,0.0,0.0,0.0,0.0,0.0,0.0,0.0,0.0,0.0,0.0,0.0,0.0,0.0,2.0,2.0,0.0,0.0,0.0,0.0,0.0,0.0,0.0,0.0,0.0,0.0,0.0,0.0,0.0,0.0,0.0,0.0,0.0,0.0,0.0,2.0,2.0
364,"Poza Rica de Hidalgo, Veracruz",20.53765745,-97.44512479987276,municipio,"Poza Rica de Hidalgo, Ver.",0.0,0.0,0.0,0.0,0.0,0.0,0.0,0.0,0.0,1.0,0.0,1.0,0.0,0.0,0.0,0.0,11.0,11.0,0.0,0.0,0.0,0.0,87.0,87.0,0.0,21.0,21.0,0.0,2.0,2.0,0.0,7.0,7.0,0.0,0.0,0.0,1.0,128.0,129.0
365,"Pueblo Viejo, Veracruz",22.1638426,-97.89855507348236,municipio,"Pueblo Viejo, Ver.",13.0,26.0,39.0,33.0,31.0,64.0,89.0,78.0,167.0,40.0,19.0,59.0,8.0,3.0,11.0,4.0,1.0,5.0,46.0,13.0,59.0,0.0,0.0,0.0,49.0,31.0,80.0,0.0,0.0,0.0,0.0,0.0,0.0,0.0,0.0,0.0,282.0,202.0,484.0
366,"Río Blanco, Veracruz",18.84522475,-97.15229388882732,municipio,"Río Blanco, Ver.",0.0,0.0,0.0,0.0,0.0,0.0,0.0,0.0,0.0,0.0,0.0,0.0,0.0,8.0,8.0,0.0,9.0,9.0,0.0,0.0,0.0,0.0,0.0,0.0,0.0,0.0,0.0,0.0,0.0,0.0,0.0,33.0,33.0,0.0,0.0,0.0,0.0,50.0,50.0
367,"San Andrés Tuxtla, Veracruz",18.4633672,-95.19831533920046,municipio,"San Andrés Tuxtla, Ver.",0.0,18.0,18.0,0.0,29.0,29.0,0.0,0.0,0.0,9.0,14.0,23.0,0.0,4.0,4.0,0.0,0.0,0.0,0.0,0.0,0.0,0.0,15.0,15.0,0.0,0.0,0.0,0.0,0.0,0.0,0.0,13.0,13.0,0.0,0.0,0.0,9.0,93.0,102.0
368,"San Juan Evangelista, Veracruz",17.76252635,-95.23042939358857,municipio,"San Juan Evangelista, Ver.",0.0,0.0,0.0,0.0,1.0,1.0,0.0,0.0,0.0,0.0,0.0,0.0,0.0,0.0,0.0,0.0,0.0,0.0,0.0,0.0,0.0,0.0,0.0,0.0,0.0,0.0,0.0,0.0,0.0,0.0,0.0,0.0,0.0,0.0,0.0,0.0,0.0,1.0,1.0
369,"Sayula de Alemán, Veracruz",17.74768255,-94.95439752101804,municipio,"Sayula de Alemán, Ver.",0.0,604.0,604.0,0.0,609.0,609.0,0.0,0.0,0.0,0.0,387.0,387.0,0.0,1058.0,1058.0,0.0,356.0,356.0,0.0,737.0,737.0,0.0,1637.0,1637.0,0.0,1601.0,1601.0,0.0,1128.0,1128.0,0.0,762.0,762.0,0.0,432.0,432.0,0.0,9311.0,9311.0
370,"Soledad de Doblado, Veracruz",19.0452067,-96.4233756,municipio,"Soledad de Doblado, Ver.",3.0,0.0,3.0,0.0,0.0,0.0,0.0,0.0,0.0,0.0,0.0,0.0,0.0,0.0,0.0,0.0,0.0,0.0,0.0,0.0,0.0,0.0,0.0,0.0,0.0,0.0,0.0,0.0,0.0,0.0,0.0,0.0,0.0,0.0,0.0,0.0,3.0,0.0,3.0
371,"Tecolutla, Veracruz",20.41847865,-96.9936370355502,municipio,"Tecolutla, Ver.",0.0,0.0,0.0,0.0,0.0,0.0,0.0,0.0,0.0,0.0,0.0,0.0,0.0,2.0,2.0,0.0,0.0,0.0,0.0,0.0,0.0,0.0,0.0,0.0,0.0,0.0,0.0,0.0,0.0,0.0,0.0,0.0,0.0,0.0,0.0,0.0,0.0,2.0,2.0
372,"Texistepec, Veracruz",17.894167,-94.816389,municipio,"Texistepec, Ver.",0.0,0.0,0.0,0.0,0.0,0.0,0.0,0.0,0.0,0.0,0.0,0.0,0.0,0.0,0.0,0.0,0.0,0.0,0.0,0.0,0.0,0.0,0.0,0.0,0.0,0.0,0.0,0.0,0.0,0.0,0.0,7.0,7.0,0.0,0.0,0.0,0.0,7.0,7.0
373,"Tezonapa, Veracruz",18.5587309,-96.78234114824798,municipio,"Tezonapa, Ver.",0.0,0.0,0.0,0.0,0.0,0.0,0.0,0.0,0.0,0.0,0.0,0.0,0.0,0.0,0.0,0.0,0.0,0.0,0.0,0.0,0.0,0.0,0.0,0.0,0.0,0.0,0.0,0.0,0.0,0.0,0.0,0.0,0.0,0.0,6.0,6.0,0.0,6.0,6.0
374,"Tierra Blanca, Veracruz",18.5272475,-96.21520077487332,municipio,"Tierra Blanca, Ver.",5.0,0.0,5.0,0.0,0.0,0.0,0.0,0.0,0.0,0.0,0.0,0.0,0.0,6.0,6.0,0.0,0.0,0.0,0.0,0.0,0.0,0.0,1.0,1.0,0.0,1.0,1.0,0.0,0.0,0.0,0.0,0.0,0.0,0.0,0.0,0.0,5.0,8.0,13.0
375,"Tihuatlán, Veracruz",20.716735,-97.5367859622192,municipio,"Tihuatlán, Ver.",0.0,0.0,0.0,1.0,0.0,1.0,0.0,0.0,0.0,25.0,4.0,29.0,0.0,0.0,0.0,0.0,5.0,5.0,0.0,0.0,0.0,0.0,0.0,0.0,0.0,0.0,0.0,0.0,0.0,0.0,0.0,0.0,0.0,0.0,0.0,0.0,26.0,9.0,35.0
376,"Tres Valles, Veracruz",18.2921576,-96.16641196824392,municipio,"Tres Valles, Ver.",0.0,0.0,0.0,0.0,0.0,0.0,0.0,0.0,0.0,0.0,0.0,0.0,0.0,0.0,0.0,0.0,0.0,0.0,0.0,0.0,0.0,0.0,0.0,0.0,0.0,0.0,0.0,0.0,0.0,0.0,0.0,0.0,0.0,0.0,2.0,2.0,0.0,2.0,2.0
377,"Tuxpan, Veracruz",20.95647915,-97.40738177120748,municipio,"Tuxpan, Ver.",9.0,4.0,13.0,10.0,6.0,16.0,16.0,17.0,33.0,53.0,18.0,71.0,15.0,3.0,18.0,2.0,0.0,2.0,11.0,6.0,17.0,0.0,0.0,0.0,0.0,13.0,13.0,1.0,30.0,31.0,0.0,4.0,4.0,0.0,0.0,0.0,117.0,101.0,218.0
378,"Veracruz, Veracruz",19.333333,-96.666667,municipio,"Veracruz, Ver.",169.0,6.0,175.0,414.0,0.0,414.0,967.0,0.0,967.0,34.0,20.0,54.0,0.0,3.0,3.0,0.0,0.0,0.0,0.0,1.0,1.0,0.0,104.0,104.0,1.0,231.0,232.0,0.0,71.0,71.0,0.0,33.0,33.0,0.0,9.0,9.0,1585.0,478.0,2063.0
379,"Villa Aldama, Veracruz",19.6489805,-97.2228382,municipio,"Villa Aldama, Ver.",0.0,0.0,0.0,0.0,0.0,0.0,0.0,0.0,0.0,3.0,0.0,3.0,0.0,0.0,0.0,0.0,0.0,0.0,0.0,0.0,0.0,0.0,0.0,0.0,0.0,0.0,0.0,0.0,0.0,0.0,0.0,0.0,0.0,0.0,0.0,0.0,3.0,0.0,3.0
380,"Xalapa, Veracruz",19.5408338,-96.9146374,municipio,"Xalapa, Ver.",21.0,3.0,24.0,2.0,9.0,11.0,0.0,20.0,20.0,12.0,0.0,12.0,3.0,0.0,3.0,0.0,0.0,0.0,15.0,0.0,15.0,0.0,0.0,0.0,0.0,0.0,0.0,0.0,0.0,0.0,0.0,18.0,18.0,0.0,0.0,0.0,53.0,50.0,103.0
381,"Yanga, Veracruz",18.8313634,-96.7992608,municipio,"Yanga, Ver.",0.0,0.0,0.0,0.0,0.0,0.0,0.0,0.0,0.0,0.0,0.0,0.0,0.0,0.0,0.0,0.0,0.0,0.0,0.0,0.0,0.0,0.0,0.0,0.0,0.0,0.0,0.0,0.0,62.0,62.0,0.0,0.0,0.0,0.0,0.0,0.0,0.0,62.0,62.0
382,"Mérida, Yucatán",20.9670759,-89.6237402,municipio,"Mérida, Yuc.",37.0,12.0,49.0,35.0,0.0,35.0,127.0,1.0,128.0,336.0,0.0,336.0,4.0,0.0,4.0,10.0,0.0,10.0,23.0,0.0,23.0,38.0,15.0,53.0,47.0,21.0,68.0,80.0,0.0,80.0,69.0,37.0,106.0,29.0,9.0,38.0,835.0,95.0,930.0
