nombre,ciudad,estado,detenciones,latitud,longitud,codigo_ruta
"Aguascalientes, Aguascalientes","Aguascalientes, Aguascalientes",Aguascalientes, 423,22.0000001,-102.5000001,C
"Cosio, Aguascalientes","Cosio, Aguascalientes",Aguascalientes, 98,22.3705155,-102.3120085105234,C
"San Francisco de los Romo, Aguascalientes","San Francisco de los Romo, Aguascalientes",Aguascalientes, 18,22.0746282,-102.2707133,C
"Jesus Maria, Aguascalientes","Jesus Maria, Aguascalientes",Aguascalientes, 20,21.9345555,-102.46845171651152,C
"Tijuana, Baja California","Tijuana, Baja California",Baja California,27 568,32.5317397,-117.019529,P
"Ensenada, Baja California","Ensenada, Baja California",Baja California, 29,31.8658887,-116.602983,P
"Playas de Rosarito, Baja California","Playas de Rosarito, Baja California",Baja California, 38,32.25812915,-116.87330722517584,P
"Tecate, Baja California","Tecate, Baja California",Baja California, 594,32.5653831,-116.6298787,P
"Mexicali, Baja California","Mexicali, Baja California",Baja California,5 706,32.6405247,-115.474899,P
"San Felipe, Baja California","San Felipe, Baja California",Baja California, 4,31.0269529,-114.839607,P
"La Paz, Baja California Sur","La Paz, Baja California Sur",Baja California Sur, 342,24.1619948,-110.3158532,P
"Los Cabos, Baja California Sur","Los Cabos, Baja California Sur",Baja California Sur, 62,23.271848050000003,-109.6897684130629,P
"Calkini, Campeche","Calkini, Campeche",Campeche, 1,20.3695121,-90.0510784,S
"Calakmul, Campeche","Calakmul, Campeche",Campeche, 194,18.1073406,-89.80832803981309,S
"Palizada, Campeche","Palizada, Campeche",Campeche, 15,18.2549484,-92.0907089,S
"Escarcega, Campeche","Escarcega, Campeche",Campeche,1 232,18.606934,-90.7385823,S
"Champoton, Campeche","Champoton, Campeche",Campeche, 150,19.3439655,-90.7242742,S
"Seybaplaya, Campeche","Seybaplaya, Campeche",Campeche, 8,19.60337225,-90.62536695555148,S
"Campeche, Campeche","Campeche, Campeche",Campeche,1 754,19.830285751988043,-90.53551463998544,S
"Tenabo, Campeche","Tenabo, Campeche",Campeche, 22,20.0406607,-90.2254956,S
"Carmen, Campeche","Carmen, Campeche",Campeche, 255,18.651739,-91.81492,S
"Huixtla, Chiapas","Huixtla, Chiapas",Chiapas,20 836,15.122125,-92.50399707604466,S
"Mezcalapa, Chiapas","Mezcalapa, Chiapas",Chiapas, 440,17.2364959,-93.6349751688609,S
"Union Juarez, Chiapas","Union Juarez, Chiapas",Chiapas,2 674,15.07074175,-92.09254280799922,S
"Tapachula, Chiapas","Tapachula, Chiapas",Chiapas,98 486,14.9042905,-92.2609265,S
"Tuxtla Chico, Chiapas","Tuxtla Chico, Chiapas",Chiapas, 595,14.8768619,-92.19675245459756,S
"Frontera Hidalgo, Chiapas","Frontera Hidalgo, Chiapas",Chiapas, 15,14.7531678,-92.21613683447438,S
"Suchiate, Chiapas","Suchiate, Chiapas",Chiapas,25 989,14.6321744,-92.24196336095298,S
"Pantepec, Chiapas","Pantepec, Chiapas",Chiapas, 1,17.194414199999997,-93.05246608493754,S
"Chiapa de Corzo, Chiapas","Chiapa de Corzo, Chiapas",Chiapas, 120,16.7075202,-93.0115045,S
"Berriozabal, Chiapas","Berriozabal, Chiapas",Chiapas, 160,16.871689449999998,-93.33707618047065,S
"Ocozocoautla de Espinosa, Chiapas","Ocozocoautla de Espinosa, Chiapas",Chiapas,1 226,16.7931431,-93.45696355337824,S
"Tuxtla Gutierrez, Chiapas","Tuxtla Gutierrez, Chiapas",Chiapas,15 141,16.753801,-93.115959,S
"Villa Comaltitlan, Chiapas","Villa Comaltitlan, Chiapas",Chiapas,1 835,15.1709732,-92.61288629080111,S
"Cintalapa de Figueroa, Chiapas","Cintalapa de Figueroa, Chiapas",Chiapas, 3,16.6905402,-93.7257625,S
"Jiquipilas, Chiapas","Jiquipilas, Chiapas",Chiapas, 677,16.57497565,-93.60565427888372,S
"Villaflores, Chiapas","Villaflores, Chiapas",Chiapas, 5,16.37550225,-93.3589334041931,S
"Arriaga, Chiapas","Arriaga, Chiapas",Chiapas,19 839,16.2344709,-93.9008414,S
"Tonala, Chiapas","Tonala, Chiapas",Chiapas, 230,16.0894476,-93.7546502,S
"Villa Corzo, Chiapas","Villa Corzo, Chiapas",Chiapas, 8,16.0631888,-93.26500252520376,S
"Pijijiapan, Chiapas","Pijijiapan, Chiapas",Chiapas,11 297,15.6849991,-93.2080195,S
"Copainala, Chiapas","Copainala, Chiapas",Chiapas, 7,17.0930214,-93.2102105,S
"Motozintla, Chiapas","Motozintla, Chiapas",Chiapas, 8,15.3050827,-92.34880361871576,S
"Huehuetan, Chiapas","Huehuetan, Chiapas",Chiapas,18 319,15.0217164,-92.42866979063194,S
"Chicomuselo, Chiapas","Chicomuselo, Chiapas",Chiapas, 1,15.7935524,-92.41926620137892,S
"Comitan de Dominguez, Chiapas","Comitan de Dominguez, Chiapas",Chiapas, 337,16.2911698,-92.17532124270645,S
"Teopisca, Chiapas","Teopisca, Chiapas",Chiapas, 1,16.5420839,-92.4736561,S
"Escuintla, Chiapas","Escuintla, Chiapas",Chiapas, 19,15.35100255,-92.55576537361532,S
"Acacoyagua, Chiapas","Acacoyagua, Chiapas",Chiapas, 2,15.4060577,-92.6972939305788,S
"Mapastepec, Chiapas","Mapastepec, Chiapas",Chiapas, 36,15.43981,-92.898367,S
"La Trinitaria, Chiapas","La Trinitaria, Chiapas",Chiapas, 177,16.1206164,-92.0542431,S
"Siltepec, Chiapas","Siltepec, Chiapas",Chiapas, 1,15.5561492,-92.3226035,S
"Frontera Comalapa, Chiapas","Frontera Comalapa, Chiapas",Chiapas, 802,15.6590135,-92.1422219,S
"Yajalon, Chiapas","Yajalon, Chiapas",Chiapas, 3,17.1768885,-92.3519609858044,S
"San Cristobal de las Casas, Chiapas","San Cristobal de las Casas, Chiapas",Chiapas, 745,16.6835469,-92.61551841991157,S
"Ocosingo, Chiapas","Ocosingo, Chiapas",Chiapas, 182,16.9057,-92.092776,S
"Salto de Agua, Chiapas","Salto de Agua, Chiapas",Chiapas, 9,17.4348976,-92.22480249886088,S
"Chenalho, Chiapas","Chenalho, Chiapas",Chiapas, 341,16.971716100000002,-92.51921237690784,S
"Catazaja, Chiapas","Catazaja, Chiapas",Chiapas, 392,17.76826375,-92.03793125285311,S
"Palenque, Chiapas","Palenque, Chiapas",Chiapas,9 027,17.509188,-91.980922,S
"Juarez, Chihuahua","Juarez, Chihuahua",Chihuahua,7 925,31.7372575,-106.485655,C
"Ojinaga, Chihuahua","Ojinaga, Chihuahua",Chihuahua, 94,29.5654282,-104.4128523,C
"Chihuahua, Chihuahua","Chihuahua, Chihuahua",Chihuahua,2 035,28.5000001,-106.0000001,C
"Janos, Chihuahua","Janos, Chihuahua",Chihuahua, 129,30.8893267,-108.1930484,C
"Gustavo A. Madero, Ciudad de Mexico","Gustavo A. Madero, Ciudad de Mexico",Ciudad de Mexico,1 023,19.4831686,-99.1137888,C
"Coyoacan, Ciudad de Mexico","Coyoacan, Ciudad de Mexico",Ciudad de Mexico, 7,19.349885,-99.1623599,C
"Iztapalapa, Ciudad de Mexico","Iztapalapa, Ciudad de Mexico",Ciudad de Mexico,6 176,19.3591195,-99.0929294,C
"Venustiano Carranza, Ciudad de Mexico","Venustiano Carranza, Ciudad de Mexico",Ciudad de Mexico,1 851,19.4192787,-99.1135639,C
"Guerrero, Coahuila","Guerrero, Coahuila",Coahuila, 6,28.3093253,-100.3805564,C
"Allende, Coahuila","Allende, Coahuila",Coahuila, 289,28.3420816,-100.8517302,C
"Saltillo, Coahuila","Saltillo, Coahuila",Coahuila, 945,25.4230425,-100.9927509,C
"Nava, Coahuila","Nava, Coahuila",Coahuila, 3,28.4217309,-100.7674167,C
"Piedras Negras, Coahuila","Piedras Negras, Coahuila",Coahuila,21 201,28.7041725,-100.5148362,C
"Acuna, Coahuila","Acuna, Coahuila",Coahuila,1 672,29.3248796,-100.9322287,C
"Francisco I. Madero, Coahuila","Francisco I. Madero, Coahuila",Coahuila, 25,26.23755265,-103.09965556876554,C
"Torreon, Coahuila","Torreon, Coahuila",Coahuila, 825,25.542698,-103.410512,C
"Monclova, Coahuila","Monclova, Coahuila",Coahuila,1 207,26.8999988,-101.4171173,C
"Manzanillo, Colima","Manzanillo, Colima",Colima, 9,19.0506256,-104.3159957,P
"Villa de Alvarez, Colima","Villa de Alvarez, Colima",Colima, 2,19.2651417,-103.736013,P
"Colima, Colima","Colima, Colima",Colima, 6,19.24487815537049,-103.7250306766154,P
"Gomez Palacio, Durango","Gomez Palacio, Durango",Durango,1 048,25.5732473,-103.494779,C
"Mapimi, Durango","Mapimi, Durango",Durango, 23,25.8337403,-103.8480216,C
"Durango, Durango","Durango, Durango",Durango, 375,24.03507526470482,-104.66366132513204,C
"Tlalnepantla de Baz, Estado de Mexico","Tlalnepantla de Baz, Estado de Mexico",Estado de Mexico,,19.54649025,-99.1899352247449,C
"Texcoco, Estado de Mexico","Texcoco, Estado de Mexico",Estado de Mexico,,19.5144327,-98.8821254,C
"Ixtapaluca, Estado de Mexico","Ixtapaluca, Estado de Mexico",Estado de Mexico,,19.3129326,-98.8840481,C
"Xalatlaco, Estado de Mexico","Xalatlaco, Estado de Mexico",Estado de Mexico,,19.1843821,-99.4145622,C
"Ocoyoacac, Estado de Mexico","Ocoyoacac, Estado de Mexico",Estado de Mexico,,19.2587373,-99.41777785971426,C
"Toluca, Estado de Mexico","Toluca, Estado de Mexico",Estado de Mexico,,19.292545,-99.6569007,C
"Amecameca, Estado de Mexico","Amecameca, Estado de Mexico",Estado de Mexico,,19.120025400000003,-98.70653181362624,C
"Nezahualcoyotl, Estado de Mexico","Nezahualcoyotl, Estado de Mexico",Estado de Mexico,,19.4079028,-99.0181547,C
"Naucalpan de Juarez, Estado de Mexico","Naucalpan de Juarez, Estado de Mexico",Estado de Mexico,,19.4788356,-99.2327986,C
"Acambay de Ruiz Castaneda, Estado de Mexico","Acambay de Ruiz Castaneda, Estado de Mexico",Estado de Mexico,,19.95904705,-99.84802086293078,C
"Chalco, Estado de Mexico","Chalco, Estado de Mexico",Estado de Mexico,,19.2612215,-98.8958362,C
"Huehuetoca, Estado de Mexico","Huehuetoca, Estado de Mexico",Estado de Mexico,,19.833375,-99.2044638,C
"Atlacomulco, Estado de Mexico","Atlacomulco, Estado de Mexico",Estado de Mexico,,19.81591915,-99.86811932469178,C
"Zumpango, Estado de Mexico","Zumpango, Estado de Mexico",Estado de Mexico,,19.81293675,-99.08180953352704,C
"Tepotzotlan, Estado de Mexico","Tepotzotlan, Estado de Mexico",Estado de Mexico,,19.7173392,-99.2230683,C
"Cuautitlan, Estado de Mexico","Cuautitlan, Estado de Mexico",Estado de Mexico,,19.6531356,-99.2145002,C
"Ecatepec de Morelos, Estado de Mexico","Ecatepec de Morelos, Estado de Mexico",Estado de Mexico,,19.6074415,-99.000754,C
"Apaxco, Estado de Mexico","Apaxco, Estado de Mexico",Estado de Mexico,,19.9807399,-99.15181011020428,C
"Tecamac, Estado de Mexico","Tecamac, Estado de Mexico",Estado de Mexico,,19.7115011,-98.968354,C
"Celaya, Guanajuato","Celaya, Guanajuato",Guanajuato, 8,20.521788,-100.8140458,C
"Salamanca, Guanajuato","Salamanca, Guanajuato",Guanajuato, 6,20.571358,-101.192444,C
"Irapuato, Guanajuato","Irapuato, Guanajuato",Guanajuato, 44,20.6758761,-101.3521052,C
"Leon, Guanajuato","Leon, Guanajuato",Guanajuato, 2,21.1218598,-101.6825081,C
"Ocampo, Guanajuato","Ocampo, Guanajuato",Guanajuato, 6,21.6042823,-101.47623930019084,C
"Apaseo el Alto, Guanajuato","Apaseo el Alto, Guanajuato",Guanajuato, 1,20.4562767,-100.621263,C
"Apaseo el Grande, Guanajuato","Apaseo el Grande, Guanajuato",Guanajuato, 22,20.59193265,-100.59798678636592,C
"Comonfort, Guanajuato","Comonfort, Guanajuato",Guanajuato, 29,20.7199475,-100.761188,C
"San Miguel de Allende, Guanajuato","San Miguel de Allende, Guanajuato",Guanajuato, 15,20.9142238,-100.743784,C
"San Luis de la Paz, Guanajuato","San Luis de la Paz, Guanajuato",Guanajuato, 60,21.2970466,-100.516269,C
"Dolores Hidalgo Cuna de la Independencia Nacional, Guanajuato","Dolores Hidalgo Cuna de la Independencia Nacional, Guanajuato",Guanajuato, 6,21.1043597,-100.7259581,C
"Acapulco de Juarez, Guerrero","Acapulco de Juarez, Guerrero",Guerrero, 32,16.8680495,-99.8940182,P
"Zihuatanejo de Azueta, Guerrero","Zihuatanejo de Azueta, Guerrero",Guerrero, 14,17.80789995,-101.49695243500553,P
"San Marcos, Guerrero","San Marcos, Guerrero",Guerrero, 379,16.85734375,-99.39034185147702,P
"Azoyu, Guerrero","Azoyu, Guerrero",Guerrero,1 023,16.730833,-98.600833,P
"Chilpancingo de los Bravo, Guerrero","Chilpancingo de los Bravo, Guerrero",Guerrero, 30,17.5542149,-99.5048416,P
"Tepeapulco, Hidalgo","Tepeapulco, Hidalgo",Hidalgo, 35,19.7875962,-98.5522855,C
"Chapulhuacan, Hidalgo","Chapulhuacan, Hidalgo",Hidalgo, 18,21.1263192,-98.95211915598163,C
"Pachuca de Soto, Hidalgo","Pachuca de Soto, Hidalgo",Hidalgo, 44,20.1165413,-98.7413535,C
"Tulancingo de Bravo, Hidalgo","Tulancingo de Bravo, Hidalgo",Hidalgo, 19,20.0792094,-98.3475328,C
"Mineral de la Reforma, Hidalgo","Mineral de la Reforma, Hidalgo",Hidalgo, 22,20.06063885,-98.73057242363193,C
"Epazoyucan, Hidalgo","Epazoyucan, Hidalgo",Hidalgo, 1,20.0181268,-98.6364294,C
"Tolcayuca, Hidalgo","Tolcayuca, Hidalgo",Hidalgo, 3,19.956667,-98.920278,C
"Villa de Tezontepec, Hidalgo","Villa de Tezontepec, Hidalgo",Hidalgo, 14,19.9143587,-98.80032767789965,C
"Tizayuca, Hidalgo","Tizayuca, Hidalgo",Hidalgo, 14,19.841245,-98.9815648,C
"Emiliano Zapata, Hidalgo","Emiliano Zapata, Hidalgo",Hidalgo, 1,19.6546865,-98.544552,C
"Apan, Hidalgo","Apan, Hidalgo",Hidalgo, 4,19.7098559,-98.4502318,C
"Huasca de Ocampo, Hidalgo","Huasca de Ocampo, Hidalgo",Hidalgo, 1,20.2231549,-98.5552467331717,C
"Ixmiquilpan, Hidalgo","Ixmiquilpan, Hidalgo",Hidalgo, 1,20.481944,-99.218056,C
"Actopan, Hidalgo","Actopan, Hidalgo",Hidalgo, 2,20.2687373,-98.9431476,C
"Atitalaquia, Hidalgo","Atitalaquia, Hidalgo",Hidalgo, 2,20.0597395,-99.21328819731298,C
"Alfajayucan, Hidalgo","Alfajayucan, Hidalgo",Hidalgo, 1,20.410277,-99.40315343558592,C
"Tepeji del Rio de Ocampo, Hidalgo","Tepeji del Rio de Ocampo, Hidalgo",Hidalgo, 789,19.89368265,-99.34871815266254,C
"Tula de Allende, Hidalgo","Tula de Allende, Hidalgo",Hidalgo, 78,20.0489487,-99.37295616011426,C
"Zapotlan el Grande, Jalisco","Zapotlan el Grande, Jalisco",Jalisco, 1,19.6973465,-103.51064802186409,P
"Tlajomulco de Zuniga, Jalisco","Tlajomulco de Zuniga, Jalisco",Jalisco, 103,20.48187375,-103.40050966382874,P
"Guadalajara, Jalisco","Guadalajara, Jalisco",Jalisco,1 332,20.6720375,-103.338396,P
"El Salto, Jalisco","El Salto, Jalisco",Jalisco, 1,20.5196964,-103.1813141,P
"Zinapecuaro, Michoacan","Zinapecuaro, Michoacan",Michoacan, 176,19.856318100000003,-100.7709097129878,P
"Apatzingan, Michoacan","Apatzingan, Michoacan",Michoacan, 1,19.0913792,-102.3537356,P
"Buenavista, Michoacan","Buenavista, Michoacan",Michoacan, 1,19.21451245,-102.55515798507564,P
"Uruapan, Michoacan","Uruapan, Michoacan",Michoacan, 1,19.4147269,-102.0522647,P
"Morelia, Michoacan","Morelia, Michoacan",Michoacan, 137,19.7027116,-101.1923818,P
"Lazaro Cardenas, Michoacan","Lazaro Cardenas, Michoacan",Michoacan, 1,17.9594769,-102.198659,P
"Cuitzeo, Michoacan","Cuitzeo, Michoacan",Michoacan, 1,19.9693141,-101.1412203,P
"Xochitepec, Morelos","Xochitepec, Morelos",Morelos, 2,18.7831747,-99.2308448,C
"Tepoztlan, Morelos","Tepoztlan, Morelos",Morelos, 1,18.9914959,-99.10254532724872,C
"Emiliano Zapata, Morelos","Emiliano Zapata, Morelos",Morelos, 4,18.83995,-99.1870274,C
"Temixco, Morelos","Temixco, Morelos",Morelos, 7,18.8449428,-99.2236369,C
"Cuernavaca, Morelos","Cuernavaca, Morelos",Morelos, 21,18.9218274,-99.2342282,C
"Puente de Ixtla, Morelos","Puente de Ixtla, Morelos",Morelos, 8,18.6171111,-99.3192092,C
"Jantetelco, Morelos","Jantetelco, Morelos",Morelos, 3,18.7167516,-98.7766172,C
"Tepic, Nayarit","Tepic, Nayarit",Nayarit, 219,21.5119156,-104.8915889,P
"Bahia de Banderas, Nayarit","Bahia de Banderas, Nayarit",Nayarit, 2,20.8290434,-105.31750873696538,P
"Monterrey, Nuevo Leon","Monterrey, Nuevo Leon",Nuevo Leon, 449,25.6802019,-100.315258,G
"Salinas Victoria, Nuevo Leon","Salinas Victoria, Nuevo Leon",Nuevo Leon, 18,26.1216805,-100.3270876995874,G
"Mina, Nuevo Leon","Mina, Nuevo Leon",Nuevo Leon,2 348,26.0025145,-100.5300485,G
"Cienega de Flores, Nuevo Leon","Cienega de Flores, Nuevo Leon",Nuevo Leon, 41,25.956169,-100.1662028,G
"El Carmen, Nuevo Leon","El Carmen, Nuevo Leon",Nuevo Leon, 35,25.9368419,-100.3613419,G
"General Zuazua, Nuevo Leon","General Zuazua, Nuevo Leon",Nuevo Leon, 35,25.8953873,-100.1078021,G
"General Escobedo, Nuevo Leon","General Escobedo, Nuevo Leon",Nuevo Leon,1 204,25.808517,-100.3224334,G
"Pesqueria, Nuevo Leon","Pesqueria, Nuevo Leon",Nuevo Leon, 93,25.7851361,-100.0520621,G
"Apodaca, Nuevo Leon","Apodaca, Nuevo Leon",Nuevo Leon,4 262,25.7816542,-100.1887501,G
"China, Nuevo Leon","China, Nuevo Leon",Nuevo Leon, 146,25.4915799,-98.98111150455688,G
"San Nicolas de los Garza, Nuevo Leon","San Nicolas de los Garza, Nuevo Leon",Nuevo Leon, 50,25.7558021,-100.289648,G
"Anahuac, Nuevo Leon","Anahuac, Nuevo Leon",Nuevo Leon, 86,27.0285283,-100.0333715,G
"Guadalupe, Nuevo Leon","Guadalupe, Nuevo Leon",Nuevo Leon, 225,25.6751114,-100.2151753,G
"Santa Catarina, Nuevo Leon","Santa Catarina, Nuevo Leon",Nuevo Leon, 167,25.6745052,-100.4616371,G
"Paras, Nuevo Leon","Paras, Nuevo Leon",Nuevo Leon, 13,26.4993853,-99.5229954,G
"Los Ramones, Nuevo Leon","Los Ramones, Nuevo Leon",Nuevo Leon, 7,25.6973768,-99.6250811,G
"General Bravo, Nuevo Leon","General Bravo, Nuevo Leon",Nuevo Leon,2 059,25.7932962,-99.1811424,G
"San Pedro Garza Garcia, Nuevo Leon","San Pedro Garza Garcia, Nuevo Leon",Nuevo Leon, 1,25.6651753,-100.4018251,G
"Hualahuises, Nuevo Leon","Hualahuises, Nuevo Leon",Nuevo Leon, 34,24.8838044,-99.6739794,G
"Linares, Nuevo Leon","Linares, Nuevo Leon",Nuevo Leon, 19,24.8596282,-99.5684539,G
"Doctor Arroyo, Nuevo Leon","Doctor Arroyo, Nuevo Leon",Nuevo Leon, 11,23.80420455,-100.22566349807497,G
"Cadereyta Jimenez, Nuevo Leon","Cadereyta Jimenez, Nuevo Leon",Nuevo Leon, 83,25.517337,-99.8711735172066,G
"Montemorelos, Nuevo Leon","Montemorelos, Nuevo Leon",Nuevo Leon, 1,25.1886604,-99.8293539,G
"Aramberri, Nuevo Leon","Aramberri, Nuevo Leon",Nuevo Leon, 4,24.22172555,-99.92413452069506,G
"Santiago, Nuevo Leon","Santiago, Nuevo Leon",Nuevo Leon, 23,25.4243595,-100.1513376,G
"Juarez, Nuevo Leon","Juarez, Nuevo Leon",Nuevo Leon, 180,25.6467011,-100.0907766,G
"Garcia, Nuevo Leon","Garcia, Nuevo Leon",Nuevo Leon, 17,25.6651753,-100.4018251,G
"Galeana, Nuevo Leon","Galeana, Nuevo Leon",Nuevo Leon,5 407,24.758306,-100.38135131017378,G
"San Miguel Tequixtepec, Oaxaca","San Miguel Tequixtepec, Oaxaca",Oaxaca, 109,17.801944,-97.340556,S
"Heroica Ciudad de Huajuapan de Leon, Oaxaca","Heroica Ciudad de Huajuapan de Leon, Oaxaca",Oaxaca, 46,17.808846,-97.7780564,S
"San Cristobal Suchixtlahuaca, Oaxaca","San Cristobal Suchixtlahuaca, Oaxaca",Oaxaca, 4,17.7265261,-97.3666425,S
"San Jacinto Amilpas, Oaxaca","San Jacinto Amilpas, Oaxaca",Oaxaca, 45,17.1011376,-96.7606784,S
"Santa Maria Atzompa, Oaxaca","Santa Maria Atzompa, Oaxaca",Oaxaca, 4,17.1011053,-96.7777739,S
"Villa de Tamazulapam del Progreso, Oaxaca","Villa de Tamazulapam del Progreso, Oaxaca",Oaxaca, 2,17.6748203,-97.5720083,S
"Santa Lucia del Camino, Oaxaca","Santa Lucia del Camino, Oaxaca",Oaxaca, 6,17.0625,-96.693333,S
"Oaxaca de Juarez, Oaxaca","Oaxaca de Juarez, Oaxaca",Oaxaca,1 270,17.0604663,-96.7253575,S
"Villa Tejupam de la Union, Oaxaca","Villa Tejupam de la Union, Oaxaca",Oaxaca, 2,17.6625,-97.470833,S
"Concepcion Buenavista, Oaxaca","Concepcion Buenavista, Oaxaca",Oaxaca, 25,17.8781515,-97.4004708,S
"San Bartolo Soyaltepec, Oaxaca","San Bartolo Soyaltepec, Oaxaca",Oaxaca, 36,17.57706925,-97.31194366093106,S
"Santa Maria Huatulco, Oaxaca","Santa Maria Huatulco, Oaxaca",Oaxaca, 170,15.8337711,-96.3214401,S
"San Pedro Mixtepec -Dto. 22 -, Oaxaca","San Pedro Mixtepec -Dto. 22 -, Oaxaca",Oaxaca, 3,16.271111,-96.2825,S
"Miahuatlan de Porfirio Diaz, Oaxaca","Miahuatlan de Porfirio Diaz, Oaxaca",Oaxaca, 13,16.3610815,-96.5850578538718,S
"Santa Maria del Tule, Oaxaca","Santa Maria del Tule, Oaxaca",Oaxaca, 1,17.0476822,-96.6334574,S
"San Dionisio Ocotepec, Oaxaca","San Dionisio Ocotepec, Oaxaca",Oaxaca, 7,16.7975187,-96.3960971,S
"Trinidad Zaachila, Oaxaca","Trinidad Zaachila, Oaxaca",Oaxaca, 1,16.921389,-96.765,S
"San Antonio de la Cal, Oaxaca","San Antonio de la Cal, Oaxaca",Oaxaca, 1,17.028333,-96.700556,S
"Santa Cruz Xoxocotlan, Oaxaca","Santa Cruz Xoxocotlan, Oaxaca",Oaxaca, 731,17.026389,-96.733333,S
"San Agustin de las Juntas, Oaxaca","San Agustin de las Juntas, Oaxaca",Oaxaca, 2,17.005436,-96.7092291,S
"Santa Maria Coyotepec, Oaxaca","Santa Maria Coyotepec, Oaxaca",Oaxaca, 10,16.9716988,-96.71080424404754,S
"San Bartolo Coyotepec, Oaxaca","San Bartolo Coyotepec, Oaxaca",Oaxaca, 5,16.9575983,-96.7066199,S
"Villa de Zaachila, Oaxaca","Villa de Zaachila, Oaxaca",Oaxaca, 77,16.950833,-96.749167,S
"Tlacolula de Matamoros, Oaxaca","Tlacolula de Matamoros, Oaxaca",Oaxaca, 351,16.9314623,-96.46110745930906,S
"San Sebastian Tutla, Oaxaca","San Sebastian Tutla, Oaxaca",Oaxaca, 3,17.059722,-96.672222,S
"Santo Domingo Yanhuitlan, Oaxaca","Santo Domingo Yanhuitlan, Oaxaca",Oaxaca, 44,17.5273478,-97.3421502,S
"San Pedro Ixtlahuaca, Oaxaca","San Pedro Ixtlahuaca, Oaxaca",Oaxaca, 1,17.063056,-96.818056,S
"San Andres Huaxpaltepec, Oaxaca","San Andres Huaxpaltepec, Oaxaca",Oaxaca, 31,16.3411829,-97.93462519426676,S
"Santiago Pinotepa Nacional, Oaxaca","Santiago Pinotepa Nacional, Oaxaca",Oaxaca, 7,16.3406076,-98.0536701,S
"Santiago Juxtlahuaca, Oaxaca","Santiago Juxtlahuaca, Oaxaca",Oaxaca, 1,17.334443,-98.010574,S
"Santiago Niltepec, Oaxaca","Santiago Niltepec, Oaxaca",Oaxaca, 14,16.5614134,-94.6131085,S
"Juchitan de Zaragoza, Oaxaca","Juchitan de Zaragoza, Oaxaca",Oaxaca,2 625,16.413328999999997,-94.9118794582709,S
"San Pedro Tapanatepec, Oaxaca","San Pedro Tapanatepec, Oaxaca",Oaxaca, 283,16.3689223,-94.1927528,S
"Chahuites, Oaxaca","Chahuites, Oaxaca",Oaxaca, 54,16.2885299,-94.1942777,S
"Matias Romero Avendano, Oaxaca","Matias Romero Avendano, Oaxaca",Oaxaca, 157,16.8761133,-95.0405586,S
"Ciudad Ixtepec, Oaxaca","Ciudad Ixtepec, Oaxaca",Oaxaca, 10,16.5564139,-95.0959653,S
"El Espinal, Oaxaca","El Espinal, Oaxaca",Oaxaca, 10,16.4609135,-95.05818330487185,S
"Asuncion Nochixtlan, Oaxaca","Asuncion Nochixtlan, Oaxaca",Oaxaca, 13,17.457222,-97.225,S
"Santa Maria Jalapa del Marques, Oaxaca","Santa Maria Jalapa del Marques, Oaxaca",Oaxaca,1 264,16.4403557,-95.4448148,S
"Santa Maria Tonameca, Oaxaca","Santa Maria Tonameca, Oaxaca",Oaxaca, 1,15.745833,-96.547222,S
"Santo Domingo Tehuantepec, Oaxaca","Santo Domingo Tehuantepec, Oaxaca",Oaxaca, 222,16.3172613,-95.2468005,S
"Salina Cruz, Oaxaca","Salina Cruz, Oaxaca",Oaxaca, 112,16.1825,-95.195833,S
"San Jose Tenango, Oaxaca","San Jose Tenango, Oaxaca",Oaxaca, 6,18.15,-96.716667,S
"San Juan Bautista Tuxtepec, Oaxaca","San Juan Bautista Tuxtepec, Oaxaca",Oaxaca, 108,18.0874632,-96.1227767,S
"San Francisco Telixtlahuaca, Oaxaca","San Francisco Telixtlahuaca, Oaxaca",Oaxaca, 49,17.296628,-96.9056112,S
"San Pablo Huitzo, Oaxaca","San Pablo Huitzo, Oaxaca",Oaxaca, 729,17.2777969,-96.8866692,S
"Villa de Etla, Oaxaca","Villa de Etla, Oaxaca",Oaxaca, 2,17.2057678,-96.7981939,S
"San Pablo Etla, Oaxaca","San Pablo Etla, Oaxaca",Oaxaca, 35,17.1450449,-96.7644253,S
"San Lorenzo Cacaotepec, Oaxaca","San Lorenzo Cacaotepec, Oaxaca",Oaxaca, 2,17.1278714,-96.8017692,S
"San Pedro Totolapam, Oaxaca","San Pedro Totolapam, Oaxaca",Oaxaca, 20,15.8659835,-97.0043148,S
"Villa de Tututepec, Oaxaca","Villa de Tututepec, Oaxaca",Oaxaca, 37,16.1303062,-97.6080871,S
"Santa Maria Mixtequilla, Oaxaca","Santa Maria Mixtequilla, Oaxaca",Oaxaca, 37,16.374444,-95.259722,S
"San Pedro Pochutla, Oaxaca","San Pedro Pochutla, Oaxaca",Oaxaca, 36,15.744444,-96.465278,S
"Puebla, Puebla","Puebla, Puebla",Puebla,5 069,19.03840622797689,-98.2069491554557,C
"El Marques, Queretaro","El Marques, Queretaro",Queretaro, 16,20.73507785,-100.28357653504231,C
"Queretaro, Queretaro","Queretaro, Queretaro",Queretaro, 872,20.5927744,-100.3902245,C
"San Juan del Rio, Queretaro","San Juan del Rio, Queretaro",Queretaro,1 304,20.3867547,-99.9931982,C
"Isla Mujeres, Quintana Roo","Isla Mujeres, Quintana Roo",Quintana Roo, 24,21.2371906,-86.7350001,S
"Othon P. Blanco, Quintana Roo","Othon P. Blanco, Quintana Roo",Quintana Roo, 369,18.43704555,-88.82575815803347,S
"Bacalar, Quintana Roo","Bacalar, Quintana Roo",Quintana Roo, 9,18.6782559,-88.3922556,S
"Benito Juarez, Quintana Roo","Benito Juarez, Quintana Roo",Quintana Roo,1 897,21.07668085,-86.92633521708406,S
"Solidaridad, Quintana Roo","Solidaridad, Quintana Roo",Quintana Roo, 178,20.5843747,-87.50345268296755,S
"Cozumel, Quintana Roo","Cozumel, Quintana Roo",Quintana Roo, 24,20.4320599,-86.92069058377268,S
"Tulum, Quintana Roo","Tulum, Quintana Roo",Quintana Roo, 13,20.1692965,-87.44954812616734,S
"San Luis Potosi, San Luis Potosi","San Luis Potosi, San Luis Potosi",San Luis Potosi,4 154,22.5000001,-100.4949145,C
"Cedral, San Luis Potosi","Cedral, San Luis Potosi",San Luis Potosi, 5,23.8205361,-100.7242892,C
"Angostura, Sinaloa","Angostura, Sinaloa",Sinaloa, 79,25.3657471,-108.16152,P
"Mazatlan, Sinaloa","Mazatlan, Sinaloa",Sinaloa, 976,23.2035785,-106.4208391,P
"Ahome, Sinaloa","Ahome, Sinaloa",Sinaloa, 4,25.9240491,-109.20583440830308,P
"Guasave, Sinaloa","Guasave, Sinaloa",Sinaloa, 1,25.5738,-108.4674697,P
"Culiacan, Sinaloa","Culiacan, Sinaloa",Sinaloa, 11,24.7978965,-107.393395,P
"Imuris, Sonora","Imuris, Sonora",Sonora, 7,30.7874899,-110.8463861,P
"Guaymas, Sonora","Guaymas, Sonora",Sonora, 860,27.9216441,-110.8994059,P
"Altar, Sonora","Altar, Sonora",Sonora, 30,30.7170323,-111.8380038,P
"Nogales, Sonora","Nogales, Sonora",Sonora,4 084,31.3285057,-110.9450472,P
"Santa Ana, Sonora","Santa Ana, Sonora",Sonora,12 341,30.5410922,-111.1184881,P
"San Luis Rio Colorado, Sonora","San Luis Rio Colorado, Sonora",Sonora, 67,32.4517957,-114.7652542,P
"General Plutarco Elias Calles, Sonora","General Plutarco Elias Calles, Sonora",Sonora,1 431,31.6949837,-112.71174894524104,P
"Agua Prieta, Sonora","Agua Prieta, Sonora",Sonora, 35,31.3305591,-109.5564331,P
"Huatabampo, Sonora","Huatabampo, Sonora",Sonora,1 045,26.8248431,-109.6420085,P
"Hermosillo, Sonora","Hermosillo, Sonora",Sonora,9 637,29.0948207,-110.9692202,P
"Cajeme, Sonora","Cajeme, Sonora",Sonora,1 040,27.71198065,-109.9022075359282,P
"Caborca, Sonora","Caborca, Sonora",Sonora, 414,30.7166014,-112.1562598,P
"Puerto Penasco, Sonora","Puerto Penasco, Sonora",Sonora, 1,31.3170867,-113.531819,P
"Navojoa, Sonora","Navojoa, Sonora",Sonora, 823,27.0721872,-109.4438227,P
"Comalcalco, Tabasco","Comalcalco, Tabasco",Tabasco, 368,18.2615076,-93.2231523,G
"Cunduacan, Tabasco","Cunduacan, Tabasco",Tabasco, 2,18.066059,-93.173675,G
"Cardenas, Tabasco","Cardenas, Tabasco",Tabasco,13 100,17.990878,-93.3753314,G
"Paraiso, Tabasco","Paraiso, Tabasco",Tabasco, 2,18.3987331,-93.2125326,G
"Huimanguillo, Tabasco","Huimanguillo, Tabasco",Tabasco,97 523,17.7620967,-93.66344080511584,G
"Teapa, Tabasco","Teapa, Tabasco",Tabasco,9 947,17.5566526,-92.9480504,G
"Macuspana, Tabasco","Macuspana, Tabasco",Tabasco,34 779,17.760922,-92.596108,G
"Centro, Tabasco","Centro, Tabasco",Tabasco,71 661,18.0271588,-92.77479118046158,G
"Centla, Tabasco","Centla, Tabasco",Tabasco, 45,18.3536762,-92.65219864326907,G
"Tenosique, Tabasco","Tenosique, Tabasco",Tabasco,40 069,17.4707129,-91.4220212,G
"Emiliano Zapata, Tabasco","Emiliano Zapata, Tabasco",Tabasco,6 643,17.693626000000002,-91.63973455765353,G
"Balancan, Tabasco","Balancan, Tabasco",Tabasco,1 472,17.79751665,-91.34585889385215,G
"Tacotalpa, Tabasco","Tacotalpa, Tabasco",Tabasco,9 367,17.5952197,-92.8253388,G
"Jalapa, Tabasco","Jalapa, Tabasco",Tabasco,7 479,17.721716,-92.812012,G
"Antiguo Morelos, Tamaulipas","Antiguo Morelos, Tamaulipas",Tamaulipas, 117,22.56570125,-99.08713716065976,G
"Jaumave, Tamaulipas","Jaumave, Tamaulipas",Tamaulipas, 501,23.40496,-99.3806698,G
"Victoria, Tamaulipas","Victoria, Tamaulipas",Tamaulipas, 33,23.7389846,-99.1441352,G
"Hidalgo, Tamaulipas","Hidalgo, Tamaulipas",Tamaulipas, 45,24.2480354,-99.4382079,G
"Miguel Aleman, Tamaulipas","Miguel Aleman, Tamaulipas",Tamaulipas, 16,26.3995446,-99.0314218,G
"Nuevo Laredo, Tamaulipas","Nuevo Laredo, Tamaulipas",Tamaulipas, 143,27.4930466,-99.5074055,G
"Altamira, Tamaulipas","Altamira, Tamaulipas",Tamaulipas, 833,22.3921625,-97.9362975,G
"Matamoros, Tamaulipas","Matamoros, Tamaulipas",Tamaulipas, 405,25.8810158,-97.5064866,G
"Aldama, Tamaulipas","Aldama, Tamaulipas",Tamaulipas, 14,22.9196081,-98.0741727,G
"Soto la Marina, Tamaulipas","Soto la Marina, Tamaulipas",Tamaulipas, 53,23.87599915,-98.0502640007194,G
"Tampico, Tamaulipas","Tampico, Tamaulipas",Tamaulipas, 563,22.2157619,-97.8577713,G
"Jimenez, Tamaulipas","Jimenez, Tamaulipas",Tamaulipas, 1,24.2169169,-98.483929,G
"El Mante, Tamaulipas","El Mante, Tamaulipas",Tamaulipas, 6,22.60787365,-98.93534140593027,G
"Cruillas, Tamaulipas","Cruillas, Tamaulipas",Tamaulipas, 985,24.7554618,-98.5369904,G
"San Fernando, Tamaulipas","San Fernando, Tamaulipas",Tamaulipas, 673,24.8466769,-98.1473493,G
"Gonzalez, Tamaulipas","Gonzalez, Tamaulipas",Tamaulipas, 8,22.790387350000003,-98.57631895542931,G
"Rio Bravo, Tamaulipas","Rio Bravo, Tamaulipas",Tamaulipas, 58,25.988981,-98.0945766,G
"Reynosa, Tamaulipas","Reynosa, Tamaulipas",Tamaulipas,6 356,26.0907673,-98.2788191,G
"Tlaxco, Tlaxcala","Tlaxco, Tlaxcala",Tlaxcala, 49,19.62058645,-98.17076010112392,C
"Xaloztoc, Tlaxcala","Xaloztoc, Tlaxcala",Tlaxcala,4 231,19.403611,-98.048611,C
"Tzompantepec, Tlaxcala","Tzompantepec, Tlaxcala",Tlaxcala, 33,19.38326045,-98.08616228147103,C
"Apetatitlan de Antonio Carvajal, Tlaxcala","Apetatitlan de Antonio Carvajal, Tlaxcala",Tlaxcala, 339,19.3505173,-98.19120205454092,C
"Amaxac de Guerrero, Tlaxcala","Amaxac de Guerrero, Tlaxcala",Tlaxcala, 1,19.348889,-98.167778,C
"Ixtacuixtla de Mariano Matamoros, Tlaxcala","Ixtacuixtla de Mariano Matamoros, Tlaxcala",Tlaxcala,2 539,19.34670365,-98.37815810373962,C
"Nativitas, Tlaxcala","Nativitas, Tlaxcala",Tlaxcala, 17,19.233333,-98.314722,C
"San Jeronimo Zacualpan, Tlaxcala","San Jeronimo Zacualpan, Tlaxcala",Tlaxcala, 4,19.240833,-98.261389,C
"Yauhquemehcan, Tlaxcala","Yauhquemehcan, Tlaxcala",Tlaxcala, 101,19.4057444,-98.1824244,C
"San Juan Huactzinco, Tlaxcala","San Juan Huactzinco, Tlaxcala",Tlaxcala, 1,19.2329326,-98.2520375,C
"Zacatelco, Tlaxcala","Zacatelco, Tlaxcala",Tlaxcala, 8,19.215833,-98.239722,C
"Santa Cruz Quilehtla, Tlaxcala","Santa Cruz Quilehtla, Tlaxcala",Tlaxcala, 9,19.212222,-98.221111,C
"Papalotla de Xicohtencatl, Tlaxcala","Papalotla de Xicohtencatl, Tlaxcala",Tlaxcala, 2,19.168611,-98.203889,C
"San Pablo del Monte, Tlaxcala","San Pablo del Monte, Tlaxcala",Tlaxcala, 2,19.12695185,-98.16539571695478,C
"Chiautempan, Tlaxcala","Chiautempan, Tlaxcala",Tlaxcala, 16,19.313889,-98.1925,C
"Apizaco, Tlaxcala","Apizaco, Tlaxcala",Tlaxcala, 134,19.415556,-98.14,C
"Tocatlan, Tlaxcala","Tocatlan, Tlaxcala",Tlaxcala, 7,19.389167,-98.03,C
"Tetla de la Solidaridad, Tlaxcala","Tetla de la Solidaridad, Tlaxcala",Tlaxcala, 2,19.440556,-98.103333,C
"Calpulalpan, Tlaxcala","Calpulalpan, Tlaxcala",Tlaxcala, 25,19.587778,-98.569167,C
"Atlangatepec, Tlaxcala","Atlangatepec, Tlaxcala",Tlaxcala, 83,19.530833,-98.208333,C
"Nanacamilpa de Mariano Arista, Tlaxcala","Nanacamilpa de Mariano Arista, Tlaxcala",Tlaxcala, 2,19.5080315,-98.54324076456274,C
"Sanctorum de Lazaro Cardenas, Tlaxcala","Sanctorum de Lazaro Cardenas, Tlaxcala",Tlaxcala, 13,19.4925,-98.471944,C
"Tlaxcala, Tlaxcala","Tlaxcala, Tlaxcala",Tlaxcala, 33,19.416667,-98.166667,C
"Hueyotlipan, Tlaxcala","Hueyotlipan, Tlaxcala",Tlaxcala, 14,19.469444,-98.348056,C
"Munoz de Domingo Arenas, Tlaxcala","Munoz de Domingo Arenas, Tlaxcala",Tlaxcala, 2,19.474722,-98.208056,C
"Ixtenco, Tlaxcala","Ixtenco, Tlaxcala",Tlaxcala, 242,19.2518725,-97.8947561,C
"Huamantla, Tlaxcala","Huamantla, Tlaxcala",Tlaxcala, 73,19.313427,-97.9230236,C
"Cuapiaxtla, Tlaxcala","Cuapiaxtla, Tlaxcala",Tlaxcala, 47,19.2961777,-97.768912,C
"Ixtaczoquitlan, Veracruz","Ixtaczoquitlan, Veracruz",Veracruz, 2,18.85134015,-97.02710712449068,G
"Tezonapa, Veracruz","Tezonapa, Veracruz",Veracruz, 6,18.5587309,-96.78234114824798,G
"Tierra Blanca, Veracruz","Tierra Blanca, Veracruz",Veracruz, 13,18.5272475,-96.21520077487332,G
"Tres Valles, Veracruz","Tres Valles, Veracruz",Veracruz, 2,18.2921576,-96.16641196824392,G
"Cuitlahuac, Veracruz","Cuitlahuac, Veracruz",Veracruz,1 345,18.814226,-96.7223775,G
"Pueblo Viejo, Veracruz","Pueblo Viejo, Veracruz",Veracruz, 3,22.1638426,-97.89855507348236,G
"Ozuluama de Mascarenas, Veracruz","Ozuluama de Mascarenas, Veracruz",Veracruz, 74,21.661111,-97.850556,G
"Naranjos Amatlan, Veracruz","Naranjos Amatlan, Veracruz",Veracruz, 21,21.3093326,-97.67600130026644,G
"Alamo Temapache, Veracruz","Alamo Temapache, Veracruz",Veracruz, 1,20.995193200000003,-97.75578419140824,G
"Tuxpan, Veracruz","Tuxpan, Veracruz",Veracruz, 231,20.95647915,-97.40738177120748,G
"Tihuatlan, Veracruz","Tihuatlan, Veracruz",Veracruz, 8,20.716735,-97.5367859622192,G
"Poza Rica de Hidalgo, Veracruz","Poza Rica de Hidalgo, Veracruz",Veracruz, 129,20.53765745,-97.44512479987276,G
"Perote, Veracruz","Perote, Veracruz",Veracruz, 2,19.51086405,-97.26853448069734,G
"Villa Aldama, Veracruz","Villa Aldama, Veracruz",Veracruz, 3,19.6489805,-97.2228382,G
"Camerino Z. Mendoza, Veracruz","Camerino Z. Mendoza, Veracruz",Veracruz, 126,18.7896308,-97.15993214034108,G
"Nogales, Veracruz","Nogales, Veracruz",Veracruz, 6,18.8226013,-97.1627659,G
"Rio Blanco, Veracruz","Rio Blanco, Veracruz",Veracruz, 73,18.84522475,-97.15229388882732,G
"Orizaba, Veracruz","Orizaba, Veracruz",Veracruz,1 100,18.8497366,-97.1060062,G
"Gutierrez Zamora, Veracruz","Gutierrez Zamora, Veracruz",Veracruz, 9,20.456991,-97.085536109707,G
"Papantla, Veracruz","Papantla, Veracruz",Veracruz, 48,20.445872100000003,-97.32327774944926,G
"Martinez de la Torre, Veracruz","Martinez de la Torre, Veracruz",Veracruz, 15,20.1197165,-97.04616467665728,G
"Carrillo Puerto, Veracruz","Carrillo Puerto, Veracruz",Veracruz, 55,18.8215893,-96.58428389542232,G
"Coatzacoalcos, Veracruz","Coatzacoalcos, Veracruz",Veracruz, 297,18.1396787,-94.4501731,G
"Cotaxtla, Veracruz","Cotaxtla, Veracruz",Veracruz, 250,18.857657250000003,-96.35099905704104,G
"San Juan Evangelista, Veracruz","San Juan Evangelista, Veracruz",Veracruz, 1,17.76252635,-95.23042939358857,G
"Juan Rodriguez Clara, Veracruz","Juan Rodriguez Clara, Veracruz",Veracruz, 8,17.97320895,-95.34412799338502,G
"Isla, Veracruz","Isla, Veracruz",Veracruz, 15,18.0276212,-95.5281332,G
"Cosamaloapan de Carpio, Veracruz","Cosamaloapan de Carpio, Veracruz",Veracruz,3 096,18.28167395,-95.96435747268424,G
"Carlos A. Carrillo, Veracruz","Carlos A. Carrillo, Veracruz",Veracruz, 1,18.32836115,-95.71540338041564,G
"San Andres Tuxtla, Veracruz","San Andres Tuxtla, Veracruz",Veracruz, 102,18.4633672,-95.19831533920046,G
"Angel R. Cabada, Veracruz","Angel R. Cabada, Veracruz",Veracruz, 17,18.5927238,-95.38616824749718,G
"Alvarado, Veracruz","Alvarado, Veracruz",Veracruz, 59,18.82874235,-95.9238540059007,G
"Jesus Carranza, Veracruz","Jesus Carranza, Veracruz",Veracruz,5 396,17.38793115,-94.90949730630518,G
"Sayula de Aleman, Veracruz","Sayula de Aleman, Veracruz",Veracruz, 53,17.74768255,-94.95439752101804,G
"Texistepec, Veracruz","Texistepec, Veracruz",Veracruz, 7,17.894167,-94.816389,G
"Acayucan, Veracruz","Acayucan, Veracruz",Veracruz,45 794,17.9487862,-94.9145752,G
"Moloacan, Veracruz","Moloacan, Veracruz",Veracruz, 81,17.9926405,-94.28232907418123,G
"Yanga, Veracruz","Yanga, Veracruz",Veracruz, 62,18.8313634,-96.7992608,G
"Cosoleacaque, Veracruz","Cosoleacaque, Veracruz",Veracruz, 17,18.0060183,-94.61748300858764,G
"Minatitlan, Veracruz","Minatitlan, Veracruz",Veracruz, 10,17.992773,-94.5567103,G
"Tecolutla, Veracruz","Tecolutla, Veracruz",Veracruz, 2,20.41847865,-96.9936370355502,G
"Las Choapas, Veracruz","Las Choapas, Veracruz",Veracruz, 303,17.56348585,-93.94000863532293,G
"Xalapa, Veracruz","Xalapa, Veracruz",Veracruz, 109,19.5408338,-96.9146374,G
"Coatepec, Veracruz","Coatepec, Veracruz",Veracruz, 1,19.4543134,-96.9596375,G
"Veracruz, Veracruz","Veracruz, Veracruz",Veracruz,2 478,19.333333,-96.666667,G
"La Antigua, Veracruz","La Antigua, Veracruz",Veracruz, 160,19.3176799,-96.31864092519668,G
"Soledad de Doblado, Veracruz","Soledad de Doblado, Veracruz",Veracruz, 3,19.0452067,-96.4233756,G
"Amatlan de los Reyes, Veracruz","Amatlan de los Reyes, Veracruz",Veracruz, 17,18.87251165,-96.86857239686655,G
"Panuco, Veracruz","Panuco, Veracruz",Veracruz, 8,22.08052495,-98.23295792186904,G
"Agua Dulce, Veracruz","Agua Dulce, Veracruz",Veracruz,4 144,18.0899541,-94.16236305223826,G
"Cordoba, Veracruz","Cordoba, Veracruz",Veracruz, 609,18.8944704,-96.9352891,G
"Medellin de Bravo, Veracruz","Medellin de Bravo, Veracruz",Veracruz, 27,19.0404677,-96.1442918,G
"Fortin, Veracruz","Fortin, Veracruz",Veracruz, 54,18.8993309,-96.9982014,G
"Merida, Yucatan","Merida, Yucatan",Yucatan, 931,20.9670759,-89.6237402,S
"Progreso, Yucatan","Progreso, Yucatan",Yucatan, 3,21.2822136,-89.6636637,S
"Valladolid, Yucatan","Valladolid, Yucatan",Yucatan, 5,20.6902505,-88.2016999,S
"Zacatecas, Zacatecas","Zacatecas, Zacatecas",Zacatecas, 986,19.039018782328817,-98.20248616428334,C
"Calera, Zacatecas","Calera, Zacatecas",Zacatecas, 42,22.97848,-102.85622288611614,C
"Jerez, Zacatecas","Jerez, Zacatecas",Zacatecas, 1,22.7105933,-103.00147264243049,C
"Trancoso, Zacatecas","Trancoso, Zacatecas",Zacatecas, 96,22.7353025,-102.3667969,C
Tecate (terrestre),"Tecate , Baja California",Baja California,0,32.57613508236901,-116.62741363669146,FN
Mexicali I (terrestre),"Mexicali I , Baja California",Baja California,0,32.67558124644809,-115.49398369917375,FN
Mexicali II (terrestre),"Mexicali II , Baja California",Baja California,0,32.6773151625109,-115.38549370949664,FN
San Luis Río Colorado (terrestre),"San Luis Río Colorado , Sonora",Sonora,0,32.47235274611327,-114.74271635360935,FN
Algodones (terrestre),"Algodones , Baja California",Baja California,0,32.714894020334775,-114.73331058811812,FN
Sonoyta (terrestre) 14,"Sonoyta , Sonora",Sonora,0,31.879224908149183,-112.8184805322132,FN
Nogales Uno (terrestre) 13,"Nogales Uno , Sonora",Sonora,0,31.36902805394341,-110.92226029044784,FN
Agua Prieta (terrestre),"Agua Prieta , Sonora",Sonora,0,31.329756729149427,-109.54851121539532,FN
Naco (terrestre),"Naco , Sonora",Sonora,0,31.445106759029134,-109.80021547124612,FN
El Berrendo (terrestre),"El Berrendo , Chihuahua",Chihuahua,0,31.332426830940964,-108.5316032312158,FN
"Gral. Rodrígo M. Quevedo, Puerto Palomas (terrestre)","Gral, Chihuahua",Chihuahua,0,31.783335880695912,-107.62951151770936,FN
"Ciudad Juárez, Córdova (terrestre)","Ciudad Juárez, Chihuahua",Chihuahua,0,31.75899892717944,-106.46192972829584,FN
Ojinaga (terrestre),"Ojinaga , Chihuahua",Chihuahua,0,29.53236756891329,-104.39109084872342,FN
Piedras Negras II (terrestre) 9,"Piedras Negras II , Coahuila",Coahuila,0,28.697381790115017,-100.51247083314838,FN
Ciudad Acuña (terrestre),"Ciudad Acuña , Coahuila",Coahuila,0,29.332926131901367,-100.96617510467406,FN
Miguel Alemán (terrestre),"Miguel Alemán , Tamaulipas",Tamaulipas,0,26.403212582907017,-99.01998686603775,FN
"Guerrero, Presa Falcón (terrestre)","Guerrero, Tamaulipas",Tamaulipas,0,26.56661896210727,-99.22713423772367,FN
"Colombia, Puente Solidaridad (terrestre)","Colombia, Nuevo León",Nuevo León,0,27.69947556180477,-99.74579147498191,FN
"Reynosa-Hidalgo, Benito Juárez I y II (terrestre) 16","Reynosa-Hidalgo, Tamaulipas",Tamaulipas,0,26.02235932449347,-98.24819911446303,FN
Reynosa III-Pharr (Nuevo amanecer) (terrestre),"Reynosa III-Pharr , Tamaulipas",Tamaulipas,0,26.04348552050304,-98.20580782687132,FN
Camargo (terrestre),"Camargo , Tamaulipas",Tamaulipas,0,26.36283790368216,-98.80581265645236,FN
"Matamoros, Zaragoza (Matamoros III) (terrestre)","Matamoros, Tamaulipas",Tamaulipas,0,25.87893945982541,-97.50415658832156,FN
Puerta México (Matamoros II) (terrestre),"Puerta México , Tamaulipas",Tamaulipas,0,25.89690191257076,-97.49775599171532,FN
Nuevo Progreso-Las Flores (terrestre),"Nuevo Progreso-Las Flores , Tamaulipas",Tamaulipas,0,26.06058061952616,-97.9499974549377,FN
"Capote, Puente TLC (terrestre)","Capote, Tamaulipas",Tamaulipas,0,26.07260786674765,-97.71099570924524,FN
Ciudad Hidalgo-Suchiate I (terrestre),"Ciudad Hidalgo-Suchiate I , Chiapas",Chiapas,0,14.68799531358006,-92.1808588142041,FS
Ciudad Hidalgo-Suchiate II (terrestre),"Ciudad Hidalgo-Suchiate II , Chiapas",Chiapas,0,14.964129597821664,-92.043529713347,FS
Talismán (terrestre),"Talismán , Chiapas",Chiapas,0,14.965561378581375,-92.14662549919798,FS
Unión Juárez (terrestre),"Unión Juárez , Chiapas",Chiapas,0,15.071268746922,-92.06011670900683,FS
Ciudad Cuauhtémoc (terrestre),"Ciudad Cuauhtémoc , Chiapas",Chiapas,0,15.666405692905212,-91.98042052001313,FS
Carmen Xhan (terrestre),"Carmen Xhan , Chiapas",Chiapas,0,16.044149172156096,-91.74892763802065,FS
"Tijuana, Chaparral (terrestre) 6","Tijuana, Baja California",Baja California,0,32.541079374432634,-117.03474641976088,FN
Frontera Corozal (terrestre),"Frontera Corozal , Chiapas",Chiapas,0,16.81715718603847,-90.88312905371498,FS
"Tenosique, El Ceibo (terrestre)","Tenosique, Tabasco",Tabasco,0,17.26314112503493,-90.994678912203,FS
"Chetumal, Subteniente López (terrestre)","Chetumal, Quintana Roo",Quintana Roo,0,18.498656350307385,-88.29440046988813,FS
